code_insee;code_postal;commune;superficie;population;classe_potentiel;identifiant;departement;region;milieu;polluant;quantite;score_pollution;nb_usines_polluantes;score_traitement;score_final;lat;long
63402;63550;SAINT_VICTOR_MONTVIANEIX;4508.0;0.3;3.0;;;;;;0.0;0.0;0.0;0.0;3.0;45.93811590518903;3.61132640920902
64012;64130;AINHARP;1431.0;0.1;1.0;;;;;;0.0;0.0;0.0;0.0;1.0;43.25473886787848;-0.935719451957656
26027;26150;BARSAC;1582.0;0.2;1.0;;;;;;0.0;0.0;0.0;0.0;1.0;44.72641161157575;5.304076177947098
2A108;20126;EVISA;6720.0;0.2;3.0;;;;;;0.0;0.0;0.0;0.0;3.0;42.28525022904632;8.820396904179216
42205;42940;SAINT_BONNET_LE_COURREAU;5036.0;0.7000000000000001;3.0;;;;;;0.0;0.0;0.0;0.0;3.0;45.655161946001186;3.926111600895566
28232;28240;MANOU;1361.0;0.6000000000000001;1.0;;;;;;0.0;0.0;0.0;0.0;1.0;48.53638563478625;0.962933887077251
69063;69660;COLLONGES_AU_MONT_D'OR;381.0;3.8;3.0;6103593.0;RHONE;AUVERGNE-RHONE-ALPES;;;0.0;5e-08;1.2000000000000002;0.0;4.20000005;45.82204119141324;4.841931944597383
62761;62128;SAINT_MARTIN_SUR_COJEUL;343.0;0.2;1.0;;;;;;0.0;0.0;0.0;0.0;1.0;50.22864782200462;2.851919793535168
61502;61360;VIDAI;158.0;0.1;1.0;;;;;;0.0;0.0;0.0;0.0;1.0;48.46029122916525;0.37658145821119704
56219;56460;SAINT_GUYOMARD;1979.0;1.0;3.0;55603429.0;MORBIHAN;BRETAGNE;Air;Ammoniac (NH3);12700.0;0.0012699999999999999;0.0;0.0;3.00127;47.77934192534663;-2.502103749642248
68308;68290;SICKERT;512.0;0.3;3.0;;;;;;0.0;0.0;0.0;0.0;3.0;47.79191192131076;6.985805893713708
58034;58120;BLISMES;2686.0;0.2;3.0;;;;;;0.0;0.0;0.0;0.0;3.0;47.122905127653496;3.8214980941315773
27396;27850;MENESQUEVILLE;413.0;0.4;1.0;;;;;;0.0;0.0;0.0;0.0;1.0;49.357400464572194;1.406844150260729
37115;37160;DESCARTES;3809.0;3.8;1.0;10000663.0;INDRE-ET-LOIRE;CENTRE;Eau (direct);Demande biologique en oxygène (DBO5);108000.0;0.0064800000000000005;5.699999999999999;0.0;6.706479999999999;46.99439642293911;0.696948012848664
54013;54450;AMENONCOURT;727.0;0.1;1.0;;;;;;0.0;0.0;0.0;0.0;1.0;48.63007040028694;6.784435207674992
14407;14920;MATHIEU;939.0;1.9;1.0;;;;;;0.0;0.0;0.0;0.0;1.0;49.25623399559906;-0.36673057240265
41192;41800;LES_ROCHES_L'EVEQUE;243.0;0.3;1.0;;;;;;0.0;0.0;0.0;0.0;1.0;47.78610854086494;0.88757317847977
11175;11400;ISSEL;1822.0;0.5;3.0;;;;;;0.0;0.0;0.0;0.0;3.0;43.367567961586666;1.998047929825119
58187;58440;MYENNES;714.0;0.6000000000000001;1.0;;;;;;0.0;0.0;0.0;0.0;1.0;47.4543629223413;2.943703424470616
62084;62810;BARLY;612.0;0.2;1.0;;;;;;0.0;0.0;0.0;0.0;1.0;50.24824623732699;2.538465482918867
28052;28130;BOUGLAINVAL;1447.0;0.7000000000000001;1.0;;;;;;0.0;0.0;0.0;0.0;1.0;48.5606379302522;1.510116965614932
45234;45000;ORLEANS;2757.0;113.2;1.0;10010929.0;LOIRET;CENTRE;Air;Dioxyde de carbone (CO2) d'origine biomasse;72700000.0;14.54;0.30000000000000004;0.0;15.84;47.882863421380264;1.9161035747737611
51558;51130;SOULIERES;605.0;0.1;1.0;;;;;;0.0;0.0;0.0;0.0;1.0;48.9038402771758;3.934401266236635
65214;65230;HACHAN;187.0;0.0;1.0;;;;;;0.0;0.0;0.0;0.0;1.0;43.28481820425717;0.455050397796037
65131;65350;CASTELVIEILH;532.0;0.2;1.0;;;;;;0.0;0.0;0.0;0.0;1.0;43.28109740795723;0.201372876533492
84067;84870;LORIOL_DU_COMTAT;1120.0;2.3;1.0;;;;;;0.0;0.0;0.0;0.0;1.0;44.07535001011981;5.00514799731341
72062;72400;LA_CHAPELLE_DU_BOIS;1651.0;0.9;1.0;;;;;;0.0;0.0;0.0;0.0;1.0;48.22700213133882;0.583491271516126
64446;64350;PEYRELONGUE_ABOS;868.0;0.1;1.0;;;;;;0.0;0.0;0.0;0.0;1.0;43.41857566041727;-0.10155909868491401
17109;17220;CLAVETTE;630.0;1.1;1.0;;;;;;0.0;0.0;0.0;0.0;1.0;46.14238137618907;-1.036601421282908
52170;52190;DOMMARIEN;1791.0;0.2;1.0;;;;;;0.0;0.0;0.0;0.0;1.0;47.689229671112365;5.352838469824868
79356;79150;VOULTEGON;1760.0;0.6000000000000001;1.0;;;;;;0.0;0.0;0.0;0.0;1.0;46.91196280112844;-0.524296790050046
59209;59127;ESNES;1459.0;0.7000000000000001;1.0;;;;;;0.0;0.0;0.0;0.0;1.0;50.09538320006731;3.308481027047275
28286;28120;OLLE;1310.0;0.6000000000000001;1.0;;;;;;0.0;0.0;0.0;0.0;1.0;48.38617131755302;1.296769100037492
80798;80260;VILLERS_BOCAGE;1420.0;1.4;1.0;;;;;;0.0;0.0;0.0;0.0;1.0;50.00463851153842;2.322633118719215
22391;22350;YVIGNAC_LA_TOUR;3637.0;1.2;3.0;52206608.0;COTES-D'ARMOR;BRETAGNE;Air;Ammoniac (NH3);11000.0;0.0011;0.0;0.0;3.0011;48.34885273070685;-2.170940677619141
50006;50620;AMIGNY;366.0;0.1;3.0;;;;;;0.0;0.0;0.0;0.0;3.0;49.156847076911674;-1.185256465118036
15266;15130;YOLET;988.0;0.6000000000000001;3.0;;;;;;0.0;0.0;0.0;0.0;3.0;44.930748172620106;2.538268947804104
14453;14400;MOSLES;658.0;0.3;1.0;;;;;;0.0;0.0;0.0;0.0;1.0;49.30545494848253;-0.8205231938250861
27205;27380;DOUVILLE_SUR_ANDELLE;452.0;0.4;1.0;;;;;;0.0;0.0;0.0;0.0;1.0;49.332919885801296;1.307567744053729
87141;87310;SAINT_CYR;2123.0;0.7000000000000001;3.0;;;;;;0.0;0.0;0.0;0.0;3.0;45.8021449265236;0.982111467463143
11057;11420;CAHUZAC;314.0;0.0;1.0;;;;;;0.0;0.0;0.0;0.0;1.0;43.191045714911624;1.854771958597678
34078;34270;CLARET;2846.0;1.4;1.0;;;;;;0.0;0.0;0.0;0.0;1.0;43.857251050784136;3.8764864729269832
21247;21460;EPOISSES;2170.0;0.8;1.0;;;;;;0.0;0.0;0.0;0.0;1.0;47.503328927726;4.17120505435781
55208;55110;GESNES_EN_ARGONNE;704.0;0.0;1.0;55500171.0;MEUSE;GRAND-EST;Air;Ammoniac (NH3);13000.0;0.0013;0.0;0.0;1.0013;49.305931565568564;5.055484995619341
64233;64330;GARLIN;1822.0;1.4;1.0;56400691.0;PYRENEES-ATLANTIQUES;NOUVELLE-AQUITAINE;Air;Ammoniac (NH3);11500.0;0.00115;0.0;0.0;1.00115;43.55995866192795;-0.27229645760456
09145;09100;LES_ISSARDS;383.0;0.2;1.0;;;;;;0.0;0.0;0.0;0.0;1.0;43.07948607186958;1.739013767517685
15136;15340;MOURJOU;3026.0;0.3;3.0;;;;;;0.0;0.0;0.0;0.0;3.0;44.69741610554744;2.316590608550808
65189;65320;GAYAN;276.0;0.3;1.0;;;;;;0.0;0.0;0.0;0.0;1.0;43.304647924201376;0.048691904784193
52065;52110;BOUZANCOURT;1180.0;0.1;1.0;;;;;;0.0;0.0;0.0;0.0;1.0;48.31618289137131;4.950237251637322
03076;03230;CHEZY;3647.0;0.2;1.0;16400363.0;ALLIER;AUVERGNE-RHONE-ALPES;Air;Méthane (CH4);1060000.0;0.106;0.8999999999999999;0.0;2.0060000000000002;46.61247575199707;3.459348047973815
33376;33160;SAINT_AUBIN_DE_MEDOC;3474.0;6.0;1.0;;;;;;0.0;0.0;0.0;0.0;1.0;44.933349794119756;-0.748518197327328
44220;44640;VUE;1955.0;1.4;3.0;;;;;;0.0;0.0;0.0;0.0;3.0;47.1941974605057;-1.9008768965037999
21467;21310;OISILLY;599.0;0.1;1.0;;;;;;0.0;0.0;0.0;0.0;1.0;47.4169921769735;5.361923446416022
80406;80490;HALLENCOURT;2075.0;1.4;1.0;5102288.0;SOMME;HAUTS-DE-FRANCE;;;0.0;5e-08;2.7;0.0;3.7000000500000003;49.995560835339;1.87489334788753
91645;91370;VERRIERES_LE_BUISSON;999.0;15.5;1.0;;;;;;0.0;0.0;0.0;0.0;1.0;48.750443119964764;2.251712972144151
08202;08230;GUE_D'HOSSUS;524.0;0.5;1.0;;;;;;0.0;0.0;0.0;0.0;1.0;49.953460075082134;4.539012965510342
35232;35210;PRINCE;1229.0;0.4;3.0;;;;;;0.0;0.0;0.0;0.0;3.0;48.23709872574016;-1.105779288631942
27568;27190;SAINTE_MARTHE;1745.0;0.4;1.0;;;;;;0.0;0.0;0.0;0.0;1.0;48.957887613997634;0.881178066443101
77133;77126;COURCELLES_EN_BASSEE;1082.0;0.2;1.0;;;;;;0.0;0.0;0.0;0.0;1.0;48.41256065214989;3.052940505560729
67525;67310;WESTHOFFEN;2066.0;1.6;1.0;;;;;;0.0;0.0;0.0;0.0;1.0;48.60505516307354;7.414838197536295
08154;08260;ESTREBAY;938.0;0.1;1.0;;;;;;0.0;0.0;0.0;0.0;1.0;49.82534400876408;4.345687742972739
81196;81490;NOAILHAC;2086.0;0.8;2.0;;;;;;0.0;0.0;0.0;0.0;2.0;43.57603178081864;2.354094100354738
14668;14330;SAONNET;530.0;0.2;3.0;;;;;;0.0;0.0;0.0;0.0;3.0;49.272193386176795;-0.8809812948080681
2A028;20160;BALOGNA;2779.0;0.1;3.0;;;;;;0.0;0.0;0.0;0.0;3.0;42.18700549139955;8.753865872985392
39237;39250;FRAROZ;616.0;0.0;1.0;;;;;;0.0;0.0;0.0;0.0;1.0;46.72876921472951;6.0988043078267
36047;36170;LA_CHATRE_LANGLIN;2771.0;0.6000000000000001;3.0;;;;;;0.0;0.0;0.0;0.0;3.0;46.40976297373909;1.387543178045681
60494;60128;PLAILLY;1632.0;1.7000000000000002;1.0;5101448.0;OISE;HAUTS-DE-FRANCE;;;0.0;5e-08;8.399999999999999;0.0;9.40000005;49.11136215743413;2.577677460259489
81231;81240;ROUAIROUX;2863.0;0.4;3.0;;;;;;0.0;0.0;0.0;0.0;3.0;43.495101056789466;2.566215322867477
38553;38090;VILLEFONTAINE;1033.0;18.5;2.0;;;;;;0.0;0.0;0.0;0.0;2.0;45.61362894543775;5.155476733550103
21621;21110;TART_L'ABBAYE;336.0;0.2;1.0;;;;;;0.0;0.0;0.0;0.0;1.0;47.18354804500272;5.242011616736296
18224;18140;SAINT_MARTIN_DES_CHAMPS;1888.0;0.3;1.0;;;;;;0.0;0.0;0.0;0.0;1.0;47.17317497097478;2.935008893234969
67340;67110;OBERBRONN;2116.0;1.5;2.0;6700571.0;BAS-RHIN;GRAND-EST;;;0.0;5e-08;3.9000000000000004;0.0;5.900000050000001;48.938083646143255;7.5966570927773684
50219;50200;GRATOT;1083.0;0.7000000000000001;3.0;;;;;;0.0;0.0;0.0;0.0;3.0;49.06831043906142;-1.4945477415661401
2B123;20240;GHISONACCIA;7629.0;3.7;1.0;;;;;;0.0;0.0;0.0;0.0;1.0;42.043717807543636;9.422607709680541
60410;60400;MONDESCOURT;320.0;0.3;1.0;;;;;;0.0;0.0;0.0;0.0;1.0;49.60076324593958;3.109333331162529
61049;61570;BOISSEI_LA_LANDE;717.0;0.1;1.0;;;;;;0.0;0.0;0.0;0.0;1.0;48.68882052159762;0.060565419125394
60348;60400;LARBROYE;218.0;0.5;1.0;;;;;;0.0;0.0;0.0;0.0;1.0;49.57115457248702;2.960642909359218
79049;79300;BRESSUIRE;18202.0;18.6;3.0;7201087.0;DEUX-SEVRES;NOUVELLE-AQUITAINE;;;0.0;5e-08;1.5;0.0;4.50000005;46.85457556833268;-0.47937592228638404
34294;34400;SATURARGUES;596.0;0.9;1.0;6601255.0;HERAULT;OCCITANIE;;;0.0;5e-08;1.5;0.0;2.5000000499999997;43.71428104823308;4.117143448242454
17450;17380;TORXE;1148.0;0.2;1.0;7204243.0;CHARENTE-MARITIME;NOUVELLE-AQUITAINE;;;0.0;5e-08;1.2000000000000002;0.0;2.20000005;45.960969675585176;-0.637755810703708
04233;04200;VAUMEILH;2573.0;0.3;1.0;;;;;;0.0;0.0;0.0;0.0;1.0;44.290307695711675;5.956531218170149
69178;69610;SOUZY;507.0;0.7000000000000001;3.0;;;;;;0.0;0.0;0.0;0.0;3.0;45.70404097747074;4.451075323062199
50029;50720;BARENTON;3551.0;1.3;3.0;;;;;;0.0;0.0;0.0;0.0;3.0;48.608353386758104;-0.830642245681756
77520;77760;VILLIERS_SOUS_GREZ;1216.0;0.8;1.0;;;;;;0.0;0.0;0.0;0.0;1.0;48.31443334475717;2.639183516603568
14689;14220;THURY_HARCOURT;486.0;2.0;3.0;;;;;;0.0;0.0;0.0;0.0;3.0;48.98645145623318;-0.485109067101516
28417;28130;VILLIERS_LE_MORHIER;1060.0;1.3;1.0;;;;;;0.0;0.0;0.0;0.0;1.0;48.621149227406214;1.57247991457715
43047;43150;CHADRON;1351.0;0.3;3.0;;;;;;0.0;0.0;0.0;0.0;3.0;44.950094906412254;3.937432618613268
70010;70210;ALAINCOURT;593.0;0.1;1.0;;;;;;0.0;0.0;0.0;0.0;1.0;47.94627727671953;6.099966095706193
91378;91730;MAUCHAMPS;313.0;0.3;1.0;6504559.0;ESSONNE;ILE-DE-FRANCE;;;0.0;5e-08;1.5;0.0;2.5000000499999997;48.52726809075556;2.19718165044305
68184;68480;LIEBSDORF;427.0;0.3;1.0;;;;;;0.0;0.0;0.0;0.0;1.0;47.47896879715562;7.223147276601929
54446;54370;RECHICOURT_LA_PETITE;551.0;0.1;1.0;;;;;;0.0;0.0;0.0;0.0;1.0;48.71799714197255;6.582356754567027
72277;72110;SAINT_DENIS_DES_COUDRAIS;713.0;0.1;1.0;;;;;;0.0;0.0;0.0;0.0;1.0;48.16203731949652;0.506879313637946
32209;32400;LELIN_LAPUJOLLE;1355.0;0.2;1.0;;;;;;0.0;0.0;0.0;0.0;1.0;43.70705114047678;-0.13453242841211802
61126;61170;COULONGES_SUR_SARTHE;978.0;0.5;1.0;5302743.0;ORNE;NORMANDIE;;;0.0;5e-08;0.6000000000000001;0.0;1.6000000500000002;48.52994584945661;0.39504486783757103
41039;41500;LA_CHAPELLE_SAINT_MARTIN_EN_PLAINE;2278.0;0.7000000000000001;1.0;;;;;;0.0;0.0;0.0;0.0;1.0;47.733059040376936;1.411922537419644
79042;79800;BOUGON;1197.0;0.2;1.0;;;;;;0.0;0.0;0.0;0.0;1.0;46.36812236088442;-0.058422640934014
22284;22480;SAINT_CONNAN;1367.0;0.3;3.0;;;;;;0.0;0.0;0.0;0.0;3.0;48.41232308700991;-3.076089405115739
28199;28310;JANVILLE;1233.0;1.8;1.0;10010976.0;EURE-ET-LOIR;CENTRE;;;0.0;5e-08;5.699999999999999;5.7e-05;6.700057049999999;48.20081451800176;1.890392394344851
52468;52700;SEMILLY;1451.0;0.1;1.0;;;;;;0.0;0.0;0.0;0.0;1.0;48.2505992805529;5.464347602185679
64529;64190;SUS;1158.0;0.4;1.0;;;;;;0.0;0.0;0.0;0.0;1.0;43.29132559882774;-0.7816033314223131
24159;24410;ECHOURGNAC;3482.0;0.4;1.0;;;;;;0.0;0.0;0.0;0.0;1.0;45.12908686822414;0.22306792075255602
95219;95120;ERMONT;419.0;27.6;1.0;;;;;;0.0;0.0;0.0;0.0;1.0;48.98824217002412;2.256624437371757
08386;08300;SAINT_LOUP_EN_CHAMPAGNE;1578.0;0.2;1.0;;;;;;0.0;0.0;0.0;0.0;1.0;49.45282380956044;4.215349467630385
26086;26410;CHATILLON_EN_DIOIS;2829.0;0.6000000000000001;1.0;;;;;;0.0;0.0;0.0;0.0;1.0;44.70222496539902;5.486185380254779
57749;57320;VOELFLING_LES_BOUZONVILLE;290.0;0.2;1.0;;;;;;0.0;0.0;0.0;0.0;1.0;49.2929378044297;6.605273779431633
50284;50170;MACEY;605.0;0.1;1.0;;;;;;0.0;0.0;0.0;0.0;1.0;48.569014802916314;-1.426158253273085
80161;80132;CAHON;710.0;0.2;1.0;;;;;;0.0;0.0;0.0;0.0;1.0;50.119698062244616;1.729016963897934
28423;28130;YERMENONVILLE;516.0;0.6000000000000001;1.0;;;;;;0.0;0.0;0.0;0.0;1.0;48.548714352804126;1.622515357969856
45253;45300;PITHIVIERS_LE_VIEIL;3369.0;1.9;1.0;10002253.0;LOIRET;CENTRE;Sol;Arsenic et composés (exprimés en tant que As);9.03;1.3545e-06;4.5;0.0;5.5000013545;48.17329478042164;2.206483803159161
46244;46210;SABADEL_LATRONQUIERE;1235.0;0.1;3.0;;;;;;0.0;0.0;0.0;0.0;3.0;44.72668808886113;2.066226392075448
31069;31700;BLAGNAC;1720.0;21.8;1.0;6803257.0;HAUTE-GARONNE;OCCITANIE;;;0.0;5e-08;0.6000000000000001;0.0;1.6000000500000002;43.64218678615479;1.378869410861225
38171;38590;LA_FORTERESSE;922.0;0.3;1.0;;;;;;0.0;0.0;0.0;0.0;1.0;45.29447645873317;5.408010220788623
01007;01500;AMBRONAY;3359.0;2.3;1.0;3202489.0;AIN;AUVERGNE-RHONE-ALPES;;;0.0;5e-08;0.0;0.0;1.00000005;46.00559137817571;5.357606607354482
22128;22340;LOCARN;3255.0;0.5;3.0;;;;;;0.0;0.0;0.0;0.0;3.0;48.332570243317406;-3.411288297058122
18172;18200;ORVAL;764.0;1.9;1.0;10000006.0;CHER;CENTRE;;;0.0;5e-08;3.5999999999999996;0.0;4.60000005;46.72202260611069;2.467200089869108
93074;93410;VAUJOURS;368.0;6.3;1.0;7402241.0;SEINE-SAINT-DENIS;ILE-DE-FRANCE;Air;Dioxyde de carbone (CO2) d'origine non biomasse;80300000.0;16.060000000000002;4.800000000000001;0.0;21.860000000000003;48.932477260516166;2.58100257040038
66046;66220;CAUDIES_DE_FENOUILLEDES;3765.0;0.6000000000000001;1.0;;;;;;0.0;0.0;0.0;0.0;1.0;42.819503386234615;2.377519854915305
89442;89150;VERNOY;1449.0;0.2;1.0;;;;;;0.0;0.0;0.0;0.0;1.0;48.094056749873005;3.126103016578389
51340;51300;MAISONS_EN_CHAMPAGNE;2921.0;0.5;1.0;;;;;;0.0;0.0;0.0;0.0;1.0;48.73666328293103;4.467001607707995
89404;89100;SUBLIGNY;784.0;0.5;1.0;;;;;;0.0;0.0;0.0;0.0;1.0;48.16529841372445;3.19780626536723
50134;50420;CHEVRY;372.0;0.1;1.0;;;;;;0.0;0.0;0.0;0.0;1.0;48.97120320135577;-1.113874222044832
69270;69970;CHAPONNAY;1890.0;3.6;2.0;6103917.0;RHONE;AUVERGNE-RHONE-ALPES;;;0.0;5e-08;1.5;0.0;3.5000000499999997;45.628228745300405;4.950280146382238
51443;51260;POTANGIS;887.0;0.1;1.0;;;;;;0.0;0.0;0.0;0.0;1.0;48.58507359288909;3.646664429916947
46020;46260;BEAUREGARD;1496.0;0.2;1.0;;;;;;0.0;0.0;0.0;0.0;1.0;44.352466643795225;1.7795856872642242
74036;74290;BLUFFY;373.0;0.3;1.0;;;;;;0.0;0.0;0.0;0.0;1.0;45.86550210286825;6.222273988818074
57630;57400;SARREBOURG;1667.0;12.8;1.0;6201832.0;MOSELLE;GRAND-EST;;;0.0;5e-08;0.8999999999999999;0.0;1.90000005;48.73796615808119;7.046832664224079
53141;53210;LOUVIGNE;1267.0;1.0;3.0;6303750.0;MAYENNE;PAYS-DE-LA-LOIRE;;;0.0;5e-08;1.5;1.5000000000000002e-05;4.50001505;48.054719791902414;-0.6346407203387371
17152;17120;EPARGNES;2367.0;0.8;1.0;;;;;;0.0;0.0;0.0;0.0;1.0;45.5457212602329;-0.795992154585182
13021;13620;CARRY_LE_ROUET;1002.0;6.3;1.0;;;;;;0.0;0.0;0.0;0.0;1.0;43.34276630210911;5.153737658167031
38061;38500;LA_BUISSE;1169.0;2.7;2.0;6102832.0;ISERE;AUVERGNE-RHONE-ALPES;Air;Dioxyde de carbone (CO2) d'origine non biomasse;42700000.0;8.54;1.5;0.0;12.04;45.33113820303798;5.623564106131468
21574;21610;SAINT_SEINE_SUR_VINGEANNE;1880.0;0.4;1.0;;;;;;0.0;0.0;0.0;0.0;1.0;47.51680292508627;5.433236665725753
32009;32230;ARMOUS_ET_CAU;931.0;0.1;1.0;;;;;;0.0;0.0;0.0;0.0;1.0;43.57271696550998;0.187336904275117
67109;67270;DURNINGEN;413.0;0.6000000000000001;1.0;;;;;;0.0;0.0;0.0;0.0;1.0;48.684965126682755;7.561828481795536
70074;70500;BLONDEFONTAINE;1334.0;0.2;1.0;;;;;;0.0;0.0;0.0;0.0;1.0;47.885587653151255;5.871301040742175
77243;77400;LAGNY_SUR_MARNE;579.0;20.2;1.0;6501366.0;SEINE-ET-MARNE;ILE-DE-FRANCE;;;0.0;5e-08;5.4;0.000315;6.40031505;48.87307018579678;2.7097808131278462
92020;92320;CHATILLON;293.0;32.4;1.0;7405234.0;HAUTS-DE-SEINE;ILE-DE-FRANCE;;;0.0;5e-08;2.0999999999999996;1.5000000000000002e-05;3.1000150499999997;48.80340917559003;2.287991318832493
15027;15340;CALVINET;1399.0;0.5;3.0;;;;;;0.0;0.0;0.0;0.0;3.0;44.721184753147504;2.361920543508847
62621;62370;NORTKERQUE;1312.0;1.6;1.0;;;;;;0.0;0.0;0.0;0.0;1.0;50.87819722571735;2.033110830610541
24303;24320;NANTEUIL_AURIAC_DE_BOURZAC;2081.0;0.3;1.0;;;;;;0.0;0.0;0.0;0.0;1.0;45.38011828237888;0.287647763692338
60564;60420;SAINS_MORAINVILLERS;1247.0;0.3;1.0;;;;;;0.0;0.0;0.0;0.0;1.0;49.578489247928594;2.4639683797095002
57266;57260;GUEBLANGE_LES_DIEUZE;483.0;0.2;1.0;;;;;;0.0;0.0;0.0;0.0;1.0;48.77745484568848;6.701400226346128
60672;60117;VEZ;1083.0;0.3;1.0;;;;;;0.0;0.0;0.0;0.0;1.0;49.25689661101804;3.008641891737357
14626;14100;SAINT_MARTIN_DE_MAILLOC;727.0;0.9;1.0;;;;;;0.0;0.0;0.0;0.0;1.0;49.088406569001265;0.286444688376695
24297;24700;MOULIN_NEUF;878.0;0.9;1.0;5200110.0;DORDOGNE;NOUVELLE-AQUITAINE;Eau (direct);Demande chimique en oxygène (DCO);151000.0;0.00906;2.0999999999999996;0.0;3.1090599999999995;45.00001102126576;0.05839507141486801
72303;72440;SAINT_MICHEL_DE_CHAVAIGNES;1853.0;0.8;1.0;;;;;;0.0;0.0;0.0;0.0;1.0;48.00923013017248;0.573426882370031
02714;02220;SERMOISE;558.0;0.3;1.0;;;;;;0.0;0.0;0.0;0.0;1.0;49.372475393315256;3.4469718061199073
38540;38113;VEUREY_VOROIZE;1245.0;1.4;2.0;6104795.0;ISERE;AUVERGNE-RHONE-ALPES;;;0.0;5e-08;2.0999999999999996;7.500000000000001e-05;4.100075049999999;45.26944216560472;5.601950850235149
31312;31310;MAILHOLAS;301.0;0.0;1.0;;;;;;0.0;0.0;0.0;0.0;1.0;43.24548992828002;1.251325433367686
68177;68610;LAUTENBACH;1330.0;1.6;3.0;;;;;;0.0;0.0;0.0;0.0;3.0;47.952734929532554;7.164330103132753
07163;07140;MONTSELGUES;3654.0;0.1;1.0;;;;;;0.0;0.0;0.0;0.0;1.0;44.53327607464517;4.003787218199605
64241;64400;GERONCE;1619.0;0.4;1.0;;;;;;0.0;0.0;0.0;0.0;1.0;43.222147965727714;-0.7101668875543321
47004;47190;AIGUILLON;2831.0;4.4;1.0;;;;;;0.0;0.0;0.0;0.0;1.0;44.30128768656624;0.358229103442947
08318;08380;LA_NEUVILLE_AUX_JOUTES;1319.0;0.4;1.0;;;;;;0.0;0.0;0.0;0.0;1.0;49.93314438536224;4.240874409665208
71296;71390;MESSEY_SUR_GROSNE;1527.0;0.7000000000000001;1.0;;;;;;0.0;0.0;0.0;0.0;1.0;46.650809378507134;4.750846154089275
57493;57260;MULCEY;829.0;0.2;1.0;;;;;;0.0;0.0;0.0;0.0;1.0;48.80771420209458;6.66402921026935
02587;02840;PARFONDRU;911.0;0.3;1.0;;;;;;0.0;0.0;0.0;0.0;1.0;49.53852134115231;3.703519153150983
28088;28200;CHATEAUDUN;2845.0;13.9;1.0;9000043.0;EURE-ET-LOIR;CENTRE;;;0.0;5e-08;2.7;0.15000000000000002;3.8500000500000002;48.07624573342959;1.326367286249472
80240;80200;DOINGT;879.0;1.3;1.0;;;;;;0.0;0.0;0.0;0.0;1.0;49.92317853624688;2.962561932387903
84113;84760;SAINT_MARTIN_DE_LA_BRASQUE;558.0;0.7000000000000001;1.0;;;;;;0.0;0.0;0.0;0.0;1.0;43.7640135963936;5.539758215958521
14551;14710;RUSSY;491.0;0.2;1.0;;;;;;0.0;0.0;0.0;0.0;1.0;49.32815040947245;-0.818956490399608
04037;04250;LE_CAIRE;1768.0;0.1;1.0;;;;;;0.0;0.0;0.0;0.0;1.0;44.3744163533107;6.068757742247683
25622;25170;VILLERS_BUZON;318.0;0.3;1.0;;;;;;0.0;0.0;0.0;0.0;1.0;47.228690115016164;5.852222621619767
35072;35210;CHATILLON_EN_VENDELAIS;3217.0;1.7000000000000002;3.0;53500649.0;ILLE-ET-VILAINE;BRETAGNE;Air;Ammoniac (NH3);13200.0;0.00132;0.0;0.0;3.00132;48.22872426318765;-1.165472725147651
80701;80200;SAINT_CHRIST_BRIOST;783.0;0.5;1.0;;;;;;0.0;0.0;0.0;0.0;1.0;49.85446225764663;2.925244081009534
26335;26770;SALLES_SOUS_BOIS;968.0;0.2;1.0;;;;;;0.0;0.0;0.0;0.0;1.0;44.470792450753066;4.940082249039462
21511;21400;PUITS;2075.0;0.1;1.0;;;;;;0.0;0.0;0.0;0.0;1.0;47.72694545493285;4.4674119018713885
58023;58190;BAZOCHES;1473.0;0.2;3.0;;;;;;0.0;0.0;0.0;0.0;3.0;47.36885875302467;3.7937752445197743
59055;59360;BAZUEL;1189.0;0.6000000000000001;1.0;;;;;;0.0;0.0;0.0;0.0;1.0;50.08160219773154;3.595904230489245
76046;76116;AUZOUVILLE_SUR_RY;792.0;0.6000000000000001;1.0;;;;;;0.0;0.0;0.0;0.0;1.0;49.43743862139978;1.3096653044599371
15066;15380;LE_FALGOUX;3060.0;0.1;3.0;;;;;;0.0;0.0;0.0;0.0;3.0;45.14493106808981;2.6388267484047843
69217;69870;SAINT_JUST_D'AVRAY;1752.0;0.7000000000000001;3.0;;;;;;0.0;0.0;0.0;0.0;3.0;45.99969997462079;4.452655812795404
61246;61260;MALE;2177.0;0.8;1.0;;;;;;0.0;0.0;0.0;0.0;1.0;48.27389388713226;0.7539069299706621
76217;76200;DIEPPE;1216.0;32.7;1.0;5800617.0;SEINE-MARITIME;NORMANDIE;;;0.0;5e-08;8.100000000000001;0.0;9.100000050000002;49.92225039513961;1.086811684487205
80526;80370;LE_MEILLARD;702.0;0.2;1.0;;;;;;0.0;0.0;0.0;0.0;1.0;50.17088678609565;2.198594743817555
52009;52360;ANDILLY_EN_BASSIGNY;856.0;0.1;1.0;;;;;;0.0;0.0;0.0;0.0;1.0;47.9283690024578;5.520492530522483
06005;06260;ASCROS;1748.0;0.1;1.0;;;;;;0.0;0.0;0.0;0.0;1.0;43.919342299955744;7.015506847549632
39051;39290;BIARNE;623.0;0.4;2.0;;;;;;0.0;0.0;0.0;0.0;2.0;47.14544135054957;5.451510568187107
31431;31160;PORTET_D'ASPET;1399.0;0.1;1.0;;;;;;0.0;0.0;0.0;0.0;1.0;42.94230559880799;0.855583620604023
33130;33210;COIMERES;1286.0;0.9;1.0;;;;;;0.0;0.0;0.0;0.0;1.0;44.50049507747748;-0.21263382150572002
71459;71640;SAINT_MARTIN_SOUS_MONTAIGU;368.0;0.3;1.0;;;;;;0.0;0.0;0.0;0.0;1.0;46.81349782915081;4.710027521495861
14068;14112;BIEVILLE_BEUVILLE;1128.0;2.5;1.0;;;;;;0.0;0.0;0.0;0.0;1.0;49.2394857474295;-0.33689722229206603
85287;85390;TALLUD_SAINTE_GEMME;1872.0;0.5;3.0;6304271.0;VENDEE;PAYS-DE-LA-LOIRE;Air;Méthane (CH4);120000.0;0.011999999999999999;0.0;0.0;3.012;46.69493868615589;-0.886169517111807
35157;35133;LE_LOROUX;1145.0;0.6000000000000001;3.0;;;;;;0.0;0.0;0.0;0.0;3.0;48.39489857869563;-1.083111293700341
77414;77160;SAINT_HILLIERS;1907.0;0.4;1.0;;;;;;0.0;0.0;0.0;0.0;1.0;48.62891464105825;3.2582355268439223
40055;40280;BRETAGNE_DE_MARSAN;1309.0;1.4;1.0;;;;;;0.0;0.0;0.0;0.0;1.0;43.83658885934535;-0.46531772432977003
50077;50110;BRETTEVILLE;578.0;1.1;3.0;;;;;;0.0;0.0;0.0;0.0;3.0;49.65003234405619;-1.5082745019963562
58287;58170;TAZILLY;2580.0;0.3;3.0;;;;;;0.0;0.0;0.0;0.0;3.0;46.758953578774374;3.913777727693936
35317;35630;SAINT_SYMPHORIEN;800.0;0.5;3.0;;;;;;0.0;0.0;0.0;0.0;3.0;48.28061485101972;-1.803345445614521
39073;39800;BRAINANS;703.0;0.2;1.0;;;;;;0.0;0.0;0.0;0.0;1.0;46.874666663158145;5.627878246201509
60388;60112;MARTINCOURT;515.0;0.1;1.0;;;;;;0.0;0.0;0.0;0.0;1.0;49.53017683425905;1.904472417732129
07312;07610;SECHERAS;736.0;0.5;1.0;;;;;;0.0;0.0;0.0;0.0;1.0;45.12918922505367;4.776854044590066
16015;16000;ANGOULEME;2169.0;42.2;1.0;7202778.0;CHARENTE;NOUVELLE-AQUITAINE;Sol;Aluminium et composés (exprimés en tant que Al);10200.0;0.0007650000000000001;2.0999999999999996;0.0;3.1007649999999995;45.64725851458752;0.145144906829928
88354;88500;PONT_SUR_MADON;345.0;0.2;1.0;;;;;;0.0;0.0;0.0;0.0;1.0;48.37086416325282;6.151328962207422
16237;16460;MOUTON;902.0;0.2;1.0;;;;;;0.0;0.0;0.0;0.0;1.0;45.887443561384536;0.23645107053541603
60390;60480;MAULERS;752.0;0.2;1.0;;;;;;0.0;0.0;0.0;0.0;1.0;49.544031992873535;2.165456554630917
01202;01150;LAGNIEU;2733.0;6.7;1.0;6102124.0;AIN;AUVERGNE-RHONE-ALPES;Air;Oxydes de soufre (SOx/SO2);223000.0;0.0223;5.4;0.0;6.422300000000001;45.89170157979072;5.329175188945736
77504;77710;VILLEMARECHAL;1423.0;0.8;1.0;;;;;;0.0;0.0;0.0;0.0;1.0;48.27169757070622;2.8685481445842003
81184;81170;MONTROSIER;345.0;0.0;1.0;;;;;;0.0;0.0;0.0;0.0;1.0;44.13023811549815;1.8409133842832262
02200;02340;CLERMONT_LES_FERMES;929.0;0.1;1.0;;;;;;0.0;0.0;0.0;0.0;1.0;49.660165432660555;3.943203271451007
12018;12260;BALAGUIER_D'OLT;1098.0;0.1;1.0;;;;;;0.0;0.0;0.0;0.0;1.0;44.5189126443148;1.9771926377212372
80418;80360;HARDECOURT_AUX_BOIS;526.0;0.1;1.0;;;;;;0.0;0.0;0.0;0.0;1.0;49.99314324976955;2.813961397226289
50181;50190;FEUGERES;825.0;0.3;3.0;;;;;;0.0;0.0;0.0;0.0;3.0;49.14877592847295;-1.317273313549033
23213;23600;SAINT_MARIEN;1288.0;0.2;1.0;;;;;;0.0;0.0;0.0;0.0;1.0;46.412735972294776;2.215737999548083
77214;77410;GRESSY;335.0;0.9;1.0;;;;;;0.0;0.0;0.0;0.0;1.0;48.96500997292701;2.664403767243342
81001;81470;AGUTS;984.0;0.2;1.0;;;;;;0.0;0.0;0.0;0.0;1.0;43.53192391659317;1.924501413876798
19244;19250;SAINT_SULPICE_LES_BOIS;2319.0;0.1;3.0;;;;;;0.0;0.0;0.0;0.0;3.0;45.613289993978036;2.1415235499232
77085;77600;CHANTELOUP_EN_BRIE;317.0;2.0;1.0;;;;;;0.0;0.0;0.0;0.0;1.0;48.85777660328836;2.74039391563446
04017;04140;AUZET;3493.0;0.1;1.0;;;;;;0.0;0.0;0.0;0.0;1.0;44.30540015626243;6.3111559244922955
11284;11400;PEYRENS;497.0;0.4;1.0;;;;;;0.0;0.0;0.0;0.0;1.0;43.36183030562739;1.96005404073947
78297;78280;GUYANCOURT;1325.0;28.2;1.0;6503227.0;YVELINES;ILE-DE-FRANCE;Air;Hydroflurocarbures (HFC);336.0;3.3600000000000004e-05;12.899999999999999;0.0;13.900033599999999;48.773078389214554;2.076052077371826
61296;61290;MOULICENT;3344.0;0.3;1.0;;;;;;0.0;0.0;0.0;0.0;1.0;48.56485970832561;0.76820770114942
24521;24420;SARLIAC_SUR_L'ISLE;1000.0;1.0;1.0;;;;;;0.0;0.0;0.0;0.0;1.0;45.239863933078134;0.8663912360315481
45322;45210;THORAILLES;346.0;0.2;1.0;;;;;;0.0;0.0;0.0;0.0;1.0;48.02586980052755;2.895590687457003
57763;57260;ZOMMANGE;744.0;0.0;1.0;;;;;;0.0;0.0;0.0;0.0;1.0;48.8223763727565;6.800597122395486
46077;46090;COURS;1720.0;0.3;1.0;;;;;;0.0;0.0;0.0;0.0;1.0;44.52370468682002;1.53038009913036
89373;89100;SALIGNY;994.0;0.7000000000000001;1.0;;;;;;0.0;0.0;0.0;0.0;1.0;48.21542647116831;3.352408627727077
64400;64800;MONTAUT;1541.0;1.0;3.0;;;;;;0.0;0.0;0.0;0.0;3.0;43.132552729384386;-0.18105852950700502
59066;59740;BERELLES;572.0;0.2;1.0;;;;;;0.0;0.0;0.0;0.0;1.0;50.21367983252473;4.105417037273971
38261;38510;MORESTEL;803.0;4.1;1.0;6114504.0;ISERE;AUVERGNE-RHONE-ALPES;;;0.0;5e-08;0.0;0.0;1.00000005;45.68000246668867;5.470639295736612
81261;81500;SAINT_LIEUX_LES_LAVAUR;950.0;0.8;1.0;;;;;;0.0;0.0;0.0;0.0;1.0;43.7554264288289;1.7475268024938941
02514;02290;MONTIGNY_LENGRAIN;1159.0;0.7000000000000001;1.0;5100466.0;AISNE;HAUTS-DE-FRANCE;;;0.0;5e-08;2.7;0.0;3.7000000500000003;49.37269004626442;3.099246300109211
25026;25270;ARC_SOUS_MONTENOT;1085.0;0.2;1.0;;;;;;0.0;0.0;0.0;0.0;1.0;46.91518276454053;6.005992885465547
46126;46250;GOUJOUNAC;1032.0;0.2;1.0;;;;;;0.0;0.0;0.0;0.0;1.0;44.57504764115555;1.200891993711982
84080;84170;MONTEUX;3942.0;10.9;1.0;6400537.0;VAUCLUSE;PROVENCE-ALPES-COTE-D'AZUR;;;0.0;5e-08;1.2000000000000002;0.0;2.20000005;44.03352560025579;4.984747664499156
62268;62240;DESVRES;953.0;5.2;1.0;7000958.0;PAS-DE-CALAIS;HAUTS-DE-FRANCE;;;0.0;5e-08;3.9000000000000004;0.0;4.900000050000001;50.674934462744055;1.828793543480724
57666;57180;TERVILLE;380.0;6.5;1.0;6207847.0;MOSELLE;GRAND-EST;;;0.0;5e-08;0.0;3e-06;1.00000305;49.34654834220382;6.132201600825929
25537;25290;SCEY_MAISIERES;1270.0;0.3;1.0;;;;;;0.0;0.0;0.0;0.0;1.0;47.109277057634586;6.079245210477196
71050;71520;BOURGVILAIN;1181.0;0.3;3.0;;;;;;0.0;0.0;0.0;0.0;3.0;46.36474740876403;4.6374564318493015
60229;60680;LE_FAYEL;266.0;0.2;1.0;;;;;;0.0;0.0;0.0;0.0;1.0;49.372291511112586;2.6969172660994722
79179;79320;MONCOUTANT;2671.0;3.1;3.0;;;;;;0.0;0.0;0.0;0.0;3.0;46.73616937147824;-0.578776799054005
87147;87130;SAINT_GILLES_LES_FORETS;840.0;0.1;2.0;;;;;;0.0;0.0;0.0;0.0;2.0;45.629076018279186;1.66694771197522
73216;73730;ROGNAIX;882.0;0.4;3.0;;;;;;0.0;0.0;0.0;0.0;3.0;45.57058173742273;6.423144518935418
61220;61290;LA_LANDE_SUR_EURE;1587.0;0.2;1.0;;;;;;0.0;0.0;0.0;0.0;1.0;48.56098980952586;0.8633994294566399
41002;41400;ANGE;1738.0;0.8;1.0;54100002.0;LOIR-ET-CHER;CENTRE;Air;Ammoniac (NH3);20200.0;0.00202;0.0;0.0;1.00202;47.31651860228821;1.2397815746425351
86214;86280;SAINT_BENOIT;1357.0;7.0;1.0;7201789.0;VIENNE;NOUVELLE-AQUITAINE;;;0.0;5e-08;2.4000000000000004;0.0;3.4000000500000005;46.54864694957764;0.352443691441963
36158;36200;BADECON_LE_PIN;1010.0;0.8;3.0;;;;;;0.0;0.0;0.0;0.0;3.0;46.53203613900959;1.601903218617832
60561;60117;RUSSY_BEMONT;976.0;0.2;1.0;;;;;;0.0;0.0;0.0;0.0;1.0;49.24976284898795;2.956378175533967
25151;25530;CHEVIGNEY_LES_VERCEL;536.0;0.1;1.0;;;;;;0.0;0.0;0.0;0.0;1.0;47.165137159189754;6.367682296492373
77211;77720;GRANDPUITS_BAILLY_CARROIS;2448.0;1.0;1.0;6501169.0;SEINE-ET-MARNE;ILE-DE-FRANCE;Air;Acide cyanhydrique (HCN);9260.0;0.001852;14.399999999999999;0.0;15.401851999999998;48.58232056968711;2.975824758653043
57543;57120;PIERREVILLERS;587.0;1.5;2.0;;;;;;0.0;0.0;0.0;0.0;2.0;49.22555490577162;6.095776554718506
18251;18140;SEVRY;914.0;0.1;1.0;;;;;;0.0;0.0;0.0;0.0;1.0;47.13814472805292;2.823222898221635
38394;38840;SAINT_HILAIRE_DU_ROSIER;1634.0;1.9;1.0;;;;;;0.0;0.0;0.0;0.0;1.0;45.09079032382211;5.250138528823313
17295;17500;REAUX;915.0;0.5;1.0;;;;;;0.0;0.0;0.0;0.0;1.0;45.465632745938954;-0.38035964481454704
81040;81440;BROUSSE;1471.0;0.3;1.0;;;;;;0.0;0.0;0.0;0.0;1.0;43.72014192695512;2.061537306929211
60088;60540;BORNEL;1245.0;3.6;1.0;5100949.0;OISE;HAUTS-DE-FRANCE;;;0.0;5e-08;4.199999999999999;0.0;5.200000049999999;49.19185322688782;2.184850908748544
82027;82370;CAMPSAS;1515.0;1.2;1.0;6804247.0;TARN-ET-GARONNE;OCCITANIE;;;0.0;5e-08;3.5999999999999996;0.0;4.60000005;43.88730288910387;1.328801199738781
36178;36300;SAINT_AIGNY;1479.0;0.3;1.0;;;;;;0.0;0.0;0.0;0.0;1.0;46.63320101887659;1.005769185144657
14164;14320;CLINCHAMPS_SUR_ORNE;630.0;1.1;1.0;;;;;;0.0;0.0;0.0;0.0;1.0;49.08279053108186;-0.403970928176527
38468;38150;SALAISE_SUR_SANNE;1618.0;4.2;1.0;6103189.0;ISERE;AUVERGNE-RHONE-ALPES;Air;Oxydes de soufre (SOx/SO2);219000.0;0.021900000000000003;3.0;0.0;4.0219000000000005;45.34425118283022;4.808605327835317
50032;50810;LA_BARRE_DE_SEMILLY;781.0;0.9;2.0;;;;;;0.0;0.0;0.0;0.0;2.0;49.10632714989571;-1.018182307787344
30352;30250;VILLEVIEILLE;834.0;1.7000000000000002;1.0;;;;;;0.0;0.0;0.0;0.0;1.0;43.79609850256848;4.100748985908887
68303;68130;SCHWOBEN;241.0;0.3;1.0;;;;;;0.0;0.0;0.0;0.0;1.0;47.60752189563014;7.298843126641714
61266;61170;LE_MENIL_GUYON;283.0;0.1;1.0;;;;;;0.0;0.0;0.0;0.0;1.0;48.580061289912955;0.29433804603024805
72026;72110;BEAUFAY;2403.0;1.4;1.0;;;;;;0.0;0.0;0.0;0.0;1.0;48.142346619388164;0.342290713802651
2B088;20230;CHIATRA;827.0;0.2;1.0;;;;;;0.0;0.0;0.0;0.0;1.0;42.28793165114156;9.488668789041961
05146;05140;SAINT_JULIEN_EN_BEAUCHENE;5921.0;0.1;1.0;;;;;;0.0;0.0;0.0;0.0;1.0;44.62645706368989;5.7197997593811944
51045;51270;BEAUNAY;356.0;0.1;1.0;;;;;;0.0;0.0;0.0;0.0;1.0;48.87675504631173;3.885350389107162
24040;24220;BEYNAC_ET_CAZENAC;1310.0;0.5;1.0;;;;;;0.0;0.0;0.0;0.0;1.0;44.85727023561444;1.132220789548424
87164;87200;SAINT_MARTIN_DE_JUSSAC;1431.0;0.5;3.0;;;;;;0.0;0.0;0.0;0.0;3.0;45.86080422762895;0.943622213531445
26064;26120;CHABEUIL;4001.0;6.6;2.0;6102530.0;DROME;AUVERGNE-RHONE-ALPES;;;0.0;5e-08;0.8999999999999999;0.0;2.90000005;44.90822558422679;5.007430341893555
41222;41320;SAINT_LOUP;1497.0;0.3;1.0;;;;;;0.0;0.0;0.0;0.0;1.0;47.25517056487282;1.823909566246709
25220;25290;EPEUGNEY;1396.0;0.5;1.0;;;;;;0.0;0.0;0.0;0.0;1.0;47.127338165499935;6.019958836292127
33060;33210;BOMMES;578.0;0.5;1.0;;;;;;0.0;0.0;0.0;0.0;1.0;44.55297918135669;-0.344933084862451
72119;72240;DOMFRONT_EN_CHAMPAGNE;2106.0;1.0;1.0;;;;;;0.0;0.0;0.0;0.0;1.0;48.10917227975534;0.045002697148191
36232;36500;VENDOEUVRES;9879.0;1.1;1.0;;;;;;0.0;0.0;0.0;0.0;1.0;46.787990660196535;1.3602788548035392
57394;57670;LENING;651.0;0.3;1.0;;;;;;0.0;0.0;0.0;0.0;1.0;48.95817588734983;6.819292653438119
68118;68440;HABSHEIM;1559.0;4.8;1.0;;;;;;0.0;0.0;0.0;0.0;1.0;47.726261392018635;7.433445712060429
55349;55110;MONTIGNY_DEVANT_SASSEY;980.0;0.1;1.0;;;;;;0.0;0.0;0.0;0.0;1.0;49.42699881587396;5.137688781293838
27536;27800;SAINT_ELOI_DE_FOURQUES;732.0;0.5;1.0;;;;;;0.0;0.0;0.0;0.0;1.0;49.23567322006983;0.8027750224567891
67514;67430;WALDHAMBACH;1266.0;0.7000000000000001;1.0;6701978.0;BAS-RHIN;GRAND-EST;;;0.0;5e-08;0.6000000000000001;0.0;1.6000000500000002;48.92715128172333;7.230670798397245
64005;64360;ABOS;847.0;0.5;2.0;5206066.0;PYRENEES-ATLANTIQUES;NOUVELLE-AQUITAINE;;;0.0;5e-08;0.8999999999999999;0.0;2.90000005;43.35387421346788;-0.550692004111978
22229;22110;PLOUNEVEZ_QUINTIN;4342.0;1.1;3.0;52215635.0;COTES-D'ARMOR;BRETAGNE;Air;Ammoniac (NH3);17100.0;0.0017100000000000001;0.0;0.0;3.00171;48.285342469369205;-3.2407820928386633
46048;46190;CALVIAC;2661.0;0.2;1.0;;;;;;0.0;0.0;0.0;0.0;1.0;44.918011984057514;2.067364343209451
62671;62860;PRONVILLE;618.0;0.3;1.0;;;;;;0.0;0.0;0.0;0.0;1.0;50.165884873067874;3.008018748937529
83103;83200;LE_REVEST_LES_EAUX;2434.0;3.7;2.0;6401230.0;VAR;PROVENCE-ALPES-COTE-D'AZUR;;;0.0;5e-08;3.3000000000000003;0.0;5.30000005;43.18249184235363;5.945653922043701
57229;57830;FOULCREY;1242.0;0.2;1.0;;;;;;0.0;0.0;0.0;0.0;1.0;48.640240975711876;6.867761099134279
31451;31250;REVEL;3565.0;9.3;3.0;6804179.0;HAUTE-GARONNE;OCCITANIE;Eau (indirect);Demande biologique en oxygène (DBO5);59300.0;0.0029649999999999998;0.8999999999999999;0.0;3.902965;43.46560377994855;1.9968939405245392
91386;91540;MENNECY;1115.0;13.3;1.0;;;;;;0.0;0.0;0.0;0.0;1.0;48.558624218397924;2.437532360378652
80473;80700;LIANCOURT_FOSSE;650.0;0.3;1.0;;;;;;0.0;0.0;0.0;0.0;1.0;49.7556819927252;2.814510917107937
32224;32310;MAIGNAUT_TAUZIA;1122.0;0.2;1.0;;;;;;0.0;0.0;0.0;0.0;1.0;43.888506896034464;0.39976193328820003
31483;31800;SAINT_GAUDENS;2784.0;11.2;2.0;53100349.0;HAUTE-GARONNE;OCCITANIE;Eau (indirect);Demande biologique en oxygène (DBO5);117000.0;0.00585;0.0;0.0;2.00585;43.11992608110316;0.726613564198836
74181;74370;METZ_TESSY;521.0;2.6;1.0;;;;;;0.0;0.0;0.0;0.0;1.0;45.93844512947285;6.10517585601553
66024;66160;LE_BOULOU;1462.0;5.4;2.0;;;;;;0.0;0.0;0.0;0.0;2.0;42.52635811701112;2.831577065621218
70577;70200;VOUHENANS;839.0;0.4;1.0;;;;;;0.0;0.0;0.0;0.0;1.0;47.642436713444425;6.494035796764658
43101;43150;GOUDET;448.0;0.1;3.0;;;;;;0.0;0.0;0.0;0.0;3.0;44.89335562407433;3.92125459333511
49280;49250;SAINT_GEORGES_DU_BOIS;949.0;0.4;1.0;;;;;;0.0;0.0;0.0;0.0;1.0;47.49453165859158;-0.221401367844502
08466;08210;VAUX_LES_MOUZON;760.0;0.1;1.0;;;;;;0.0;0.0;0.0;0.0;1.0;49.60312563002334;5.137034973389456
45244;45570;OUZOUER_SUR_LOIRE;3560.0;2.7;1.0;10005683.0;LOIRET;CENTRE;;;0.0;5e-08;3.9000000000000004;0.0;4.900000050000001;47.78439369999514;2.477374582822857
39099;39500;CHAMPDIVERS;777.0;0.4;1.0;;;;;;0.0;0.0;0.0;0.0;1.0;47.007892117224806;5.390152958043056
15128;15240;LA_MONSELIE;879.0;0.1;3.0;;;;;;0.0;0.0;0.0;0.0;3.0;45.321229005969954;2.551326169653556
04240;04370;VILLARS_COLMARS;4103.0;0.2;1.0;;;;;;0.0;0.0;0.0;0.0;1.0;44.19829161500403;6.568766743046073
02763;02220;VASSENY;312.0;0.2;1.0;;;;;;0.0;0.0;0.0;0.0;1.0;49.35562752520958;3.48910249174906
58248;58150;SAINT_LAURENT_L'ABBAYE;140.0;0.2;1.0;;;;;;0.0;0.0;0.0;0.0;1.0;47.33703947474689;2.99458105957684
62055;62890;AUDREHEM;928.0;0.5;2.0;7003592.0;PAS-DE-CALAIS;HAUTS-DE-FRANCE;;;0.0;5e-08;1.2000000000000002;0.0;3.20000005;50.771435657664156;1.984516065863465
67237;67840;KILSTETT;699.0;2.4;1.0;;;;;;0.0;0.0;0.0;0.0;1.0;48.68357012266304;7.8457712142856515
32318;32500;PIS;547.0;0.1;1.0;;;;;;0.0;0.0;0.0;0.0;1.0;43.78665469736817;0.708992924431301
76147;76270;BULLY;1971.0;0.9;1.0;;;;;;0.0;0.0;0.0;0.0;1.0;49.72088641041062;1.35895678494269
12135;12270;LUNAC;1892.0;0.4;3.0;;;;;;0.0;0.0;0.0;0.0;3.0;44.240509826791616;2.100386145174402
51508;51320;SAINT_OUEN_DOMPROT;4750.0;0.2;1.0;55100290.0;MARNE;GRAND-EST;Air;Ammoniac (NH3);23500.0;0.00235;0.0;0.0;1.00235;48.61388556681951;4.392970372674109
22144;22440;LA_MEAUGON;674.0;1.3;3.0;52202591.0;COTES-D'ARMOR;BRETAGNE;Air;Ammoniac (NH3);22200.0;0.00222;0.0;0.0;3.00222;48.504476861264735;-2.847294185080706
57061;57800;BENING_LES_SAINT_AVOLD;367.0;1.2;2.0;;;;;;0.0;0.0;0.0;0.0;2.0;49.13396770537784;6.837429863689563
91619;91730;TORFOU;348.0;0.3;1.0;;;;;;0.0;0.0;0.0;0.0;1.0;48.53204942675463;2.234472045873927
89458;89140;VILLENAVOTTE;224.0;0.2;1.0;;;;;;0.0;0.0;0.0;0.0;1.0;48.24366075891632;3.232576486677377
89425;89570;TURNY;2515.0;0.7000000000000001;1.0;;;;;;0.0;0.0;0.0;0.0;1.0;48.06544718912622;3.734246778682704
02214;02680;CONTESCOURT;350.0;0.1;1.0;;;;;;0.0;0.0;0.0;0.0;1.0;49.79169346029837;3.2342835073651792
08398;08130;SAINTE_VAUBOURG;690.0;0.1;1.0;;;;;;0.0;0.0;0.0;0.0;1.0;49.459715480672905;4.592370761116567
60093;60490;BOULOGNE_LA_GRASSE;944.0;0.5;1.0;;;;;;0.0;0.0;0.0;0.0;1.0;49.60803023608963;2.700978635709094
60373;60150;MACHEMONT;632.0;0.7000000000000001;1.0;;;;;;0.0;0.0;0.0;0.0;1.0;49.509944190485704;2.875553004997816
12299;12430;VILLEFRANCHE_DE_PANAT;3057.0;0.8;3.0;6811330.0;AVEYRON;OCCITANIE;;;0.0;5e-08;0.0;0.0;3.00000005;44.09719416805621;2.715272580240219
59597;59554;TILLOY_LEZ_CAMBRAI;335.0;0.6000000000000001;1.0;7000519.0;NORD;HAUTS-DE-FRANCE;Air;Hydroflurocarbures (HFC);326.0;3.26e-05;15.0;0.0;16.0000326;50.20109488248733;3.214295369742647
27478;27220;PREY;803.0;0.9;1.0;;;;;;0.0;0.0;0.0;0.0;1.0;48.957858281832436;1.219171650009879
29180;29800;PLOUDIRY;2777.0;0.9;1.0;52902492.0;FINISTERE;BRETAGNE;Air;Ammoniac (NH3);13100.0;0.0013100000000000002;0.0;0.0;1.00131;48.45724734938059;-4.129225918392771
17346;17430;SAINT_HIPPOLYTE;2348.0;1.3;1.0;7207175.0;CHARENTE-MARITIME;NOUVELLE-AQUITAINE;;;0.0;5e-08;2.0999999999999996;0.0;3.10000005;45.91987030971783;-0.9051179393328671
07041;07100;BOULIEU_LES_ANNONAY;953.0;2.1;1.0;;;;;;0.0;0.0;0.0;0.0;1.0;45.26732333992791;4.645368943857456
12087;12340;CRUEJOULS;1824.0;0.4;1.0;;;;;;0.0;0.0;0.0;0.0;1.0;44.4439001451671;2.8635499307061822
15085;15130;LABROUSSE;1992.0;0.4;1.0;;;;;;0.0;0.0;0.0;0.0;1.0;44.85207811646486;2.549313560810107
25105;25320;BYANS_SUR_DOUBS;993.0;0.6000000000000001;1.0;;;;;;0.0;0.0;0.0;0.0;1.0;47.11297734255206;5.847439038685986
87125;87570;RILHAC_RANCON;1758.0;4.1;3.0;;;;;;0.0;0.0;0.0;0.0;3.0;45.907785002297615;1.3325752608427162
02224;02220;COURCELLES_SUR_VESLE;907.0;0.3;1.0;;;;;;0.0;0.0;0.0;0.0;1.0;49.34802588497032;3.576840358686011
85002;85220;L'AIGUILLON_SUR_VIE;2319.0;1.6;3.0;6305076.0;VENDEE;PAYS-DE-LA-LOIRE;;;0.0;5e-08;0.0;3e-06;3.00000305;46.670642661780185;-1.825999923178149
30082;30870;CLARENSAC;1466.0;3.8;1.0;;;;;;0.0;0.0;0.0;0.0;1.0;43.83717410311402;4.224732217087718
21036;21360;AUXANT;554.0;0.1;1.0;;;;;;0.0;0.0;0.0;0.0;1.0;47.12988677643437;4.619214087743126
60062;60640;BERLANCOURT;710.0;0.3;1.0;;;;;;0.0;0.0;0.0;0.0;1.0;49.67858710512278;3.083717738985143
22058;22210;LA_FERRIERE;1604.0;0.5;1.0;;;;;;0.0;0.0;0.0;0.0;1.0;48.14497878693505;-2.6263497630834323
51090;51230;BROUSSY_LE_GRAND;2116.0;0.3;1.0;;;;;;0.0;0.0;0.0;0.0;1.0;48.78897973525081;3.870563103760641
44025;44750;CAMPBON;5029.0;3.8;3.0;6301416.0;LOIRE-ATLANTIQUE;PAYS-DE-LA-LOIRE;Eau (indirect);Demande biologique en oxygène (DBO5);267000.0;0.01335;0.0;0.0;3.01335;47.416097785123135;-1.9677651968860141
59402;59143;MILLAM;1237.0;0.8;1.0;;;;;;0.0;0.0;0.0;0.0;1.0;50.85592109576163;2.251207703285819
57752;57915;WOUSTVILLER;1080.0;3.2;1.0;;;;;;0.0;0.0;0.0;0.0;1.0;49.078562246752476;7.00556408760388
62317;62156;ETAING;521.0;0.4;1.0;;;;;;0.0;0.0;0.0;0.0;1.0;50.27202463257671;2.998159750356314
44100;44690;MONNIERES;980.0;1.9;3.0;;;;;;0.0;0.0;0.0;0.0;3.0;47.120203521819754;-1.349249564174881
25390;25650;MONTBENOIT;508.0;0.4;1.0;;;;;;0.0;0.0;0.0;0.0;1.0;46.98351278557846;6.465394093568225
74032;74470;BELLEVAUX;4880.0;1.3;1.0;;;;;;0.0;0.0;0.0;0.0;1.0;46.227601939405275;6.552854164184802
80543;80270;METIGNY;674.0;0.1;1.0;;;;;;0.0;0.0;0.0;0.0;1.0;49.93678029723305;1.9114333016631022
79304;79270;SANSAIS;1504.0;0.8;1.0;;;;;;0.0;0.0;0.0;0.0;1.0;46.29024491803617;-0.594225936069086
62769;62185;SAINT_TRICAT;738.0;0.7000000000000001;1.0;;;;;;0.0;0.0;0.0;0.0;1.0;50.89266011544082;1.826640446575726
49010;49420;ARMAILLE;1689.0;0.3;3.0;;;;;;0.0;0.0;0.0;0.0;3.0;47.71348207339482;-1.137864786998232
37204;37360;ROUZIERS_DE_TOURAINE;1809.0;1.2;1.0;;;;;;0.0;0.0;0.0;0.0;1.0;47.531126367558585;0.647449146554335
64499;64270;SALIES_DE_BEARN;5242.0;4.9;2.0;5213853.0;PYRENEES-ATLANTIQUES;NOUVELLE-AQUITAINE;;;0.0;5e-08;0.0;0.0;2.00000005;43.46832392515009;-0.9177894475054811
31221;31110;GOUAUX_DE_LARBOUST;1078.0;0.1;3.0;;;;;;0.0;0.0;0.0;0.0;3.0;42.78057227947359;0.47730628000323005
62175;62140;BREVILLERS;306.0;0.1;1.0;;;;;;0.0;0.0;0.0;0.0;1.0;50.347373322780065;2.02124878449029
58013;58700;ARTHEL;775.0;0.1;1.0;;;;;;0.0;0.0;0.0;0.0;1.0;47.24399391833257;3.40639275394656
05116;05600;REOTIER;2227.0;0.2;1.0;;;;;;0.0;0.0;0.0;0.0;1.0;44.681356683333064;6.564578849752817
62689;62173;RANSART;750.0;0.4;1.0;;;;;;0.0;0.0;0.0;0.0;1.0;50.2055666043891;2.676707688593556
08133;08300;COUCY;647.0;0.5;1.0;;;;;;0.0;0.0;0.0;0.0;1.0;49.50958000236653;4.46207840046106
71466;71190;SAINT_NIZIER_SUR_ARROUX;1021.0;0.1;3.0;;;;;;0.0;0.0;0.0;0.0;3.0;46.8143219502043;4.158214430890754
52376;52230;PANSEY;903.0;0.1;1.0;;;;;;0.0;0.0;0.0;0.0;1.0;48.47724561068476;5.281557712350392
35047;35170;BRUZ;2977.0;16.2;3.0;9000114.0;ILLE-ET-VILAINE;BRETAGNE;;;0.0;5e-08;8.399999999999999;0.0;11.40000005;48.026175531303444;-1.748174809153344
29176;29550;PLONEVEZ_PORZAY;2915.0;1.7000000000000002;3.0;52902347.0;FINISTERE;BRETAGNE;Air;Ammoniac (NH3);15600.0;0.00156;0.0;0.0;3.00156;48.12722967457408;-4.239276066073019
33058;33390;BLAYE;1563.0;4.9;1.0;5200458.0;GIRONDE;NOUVELLE-AQUITAINE;;;0.0;5e-08;0.6000000000000001;0.0;1.6000000500000002;45.127899763958425;-0.669707092290521
70435;70280;RADDON_ET_CHAPENDU;1248.0;0.9;1.0;;;;;;0.0;0.0;0.0;0.0;1.0;47.855352167076234;6.453344217397226
63254;63830;NOHANENT;425.0;1.9;3.0;;;;;;0.0;0.0;0.0;0.0;3.0;45.81092225832876;3.057946377618649
39454;39230;RECANOZ;302.0;0.1;1.0;;;;;;0.0;0.0;0.0;0.0;1.0;46.807535858461314;5.506709298920896
02407;02000;LANISCOURT;298.0;0.2;1.0;;;;;;0.0;0.0;0.0;0.0;1.0;49.546911872296405;3.534067473579028
27051;27170;BEAUMONT_LE_ROGER;3651.0;3.0;1.0;5800382.0;EURE;NORMANDIE;;;0.0;5e-08;3.0;0.0;4.000000050000001;49.05921045315049;0.75483357442634
78520;78550;RICHEBOURG;1068.0;1.5;1.0;;;;;;0.0;0.0;0.0;0.0;1.0;48.82480235524075;1.634601543033838
47084;47330;DOUZAINS;1269.0;0.3;1.0;;;;;;0.0;0.0;0.0;0.0;1.0;44.636309752000756;0.551520734245953
31370;31430;MONTEGUT_BOURJAC;559.0;0.1;1.0;;;;;;0.0;0.0;0.0;0.0;1.0;43.28159293334571;0.9851027202459111
02087;02290;BIEUXY;451.0;0.0;1.0;;;;;;0.0;0.0;0.0;0.0;1.0;49.447605058525355;3.269858908073643
73207;73110;PRESLE;1154.0;0.5;3.0;;;;;;0.0;0.0;0.0;0.0;3.0;45.44155015062492;6.169159402785753
71561;71800;VAUBAN;1363.0;0.2;1.0;;;;;;0.0;0.0;0.0;0.0;1.0;46.26396962842457;4.222429710828106
88362;88210;LE_PUID;538.0;0.1;3.0;;;;;;0.0;0.0;0.0;0.0;3.0;48.3927228092099;7.039195127129992
30277;30200;SAINT_LAURENT_DE_CARNOLS;1000.0;0.5;2.0;;;;;;0.0;0.0;0.0;0.0;2.0;44.22564859657198;4.5320479084853655
53012;53400;ATHEE;1736.0;0.5;1.0;;;;;;0.0;0.0;0.0;0.0;1.0;47.881946889906295;-0.9365828951701901
42314;42830;LA_TUILIERE;3150.0;0.3;3.0;;;;;;0.0;0.0;0.0;0.0;3.0;45.95867917479717;3.8127891957724973
14655;14350;SAINT_PIERRE_TARENTAINE;1233.0;0.3;1.0;;;;;;0.0;0.0;0.0;0.0;1.0;48.96152911609071;-0.786000672196797
60435;60380;MORVILLERS;514.0;0.4;1.0;;;;;;0.0;0.0;0.0;0.0;1.0;49.58438095133642;1.8721840434275552
08489;08400;VONCQ;1980.0;0.2;1.0;;;;;;0.0;0.0;0.0;0.0;1.0;49.473694948151305;4.681418320286991
01349;01800;SAINT_ELOI;1408.0;0.4;1.0;;;;;;0.0;0.0;0.0;0.0;1.0;45.93224948610966;5.151870411782678
51259;51240;FRANCHEVILLE;939.0;0.2;1.0;5701706.0;MARNE;GRAND-EST;Air;Acétaldéhyde (aldéhyde acétique  éthanal);1600.0;0.00031999999999999997;0.0;0.0;1.00032;48.87864912287372;4.540649011032654
55142;55130;DAINVILLE_BERTHELEVILLE;4026.0;0.2;1.0;;;;;;0.0;0.0;0.0;0.0;1.0;48.45076696727419;5.508587093489204
51486;51600;SAINT_HILAIRE_LE_GRAND;4235.0;0.3;1.0;;;;;;0.0;0.0;0.0;0.0;1.0;49.17168520992965;4.449343191273495
53206;53170;SAINT_CHARLES_LA_FORET;1062.0;0.2;1.0;;;;;;0.0;0.0;0.0;0.0;1.0;47.91947631012169;-0.5689048572501271
04016;04200;AUTHON;4018.0;0.0;1.0;;;;;;0.0;0.0;0.0;0.0;1.0;44.24925455181504;6.1510227104850355
40013;40190;ARTHEZ_D'ARMAGNAC;1137.0;0.1;1.0;;;;;;0.0;0.0;0.0;0.0;1.0;43.89043010260788;-0.24723191366267203
27143;27330;CHAMPIGNOLLES;261.0;0.0;1.0;;;;;;0.0;0.0;0.0;0.0;1.0;48.95792883814657;0.7608097770333111
40326;40560;VIELLE_SAINT_GIRONS;7409.0;1.2;1.0;5209610.0;LANDES;NOUVELLE-AQUITAINE;;;0.0;5e-08;0.0;3.9e-05;1.00003905;43.93958373794422;-1.325523804648035
70359;70500;MONTCOURT;499.0;0.1;1.0;;;;;;0.0;0.0;0.0;0.0;1.0;47.93076501792469;5.96259842933385
63071;63210;CEYSSAT;3028.0;0.6000000000000001;3.0;;;;;;0.0;0.0;0.0;0.0;3.0;45.76989342607442;2.924428398904494
52253;52330;JUZENNECOURT;1211.0;0.2;1.0;5703072.0;HAUTE-MARNE;GRAND-EST;;;0.0;5e-08;0.6000000000000001;0.0;1.6000000500000002;48.19282297859031;4.985027883382382
65132;65190;CASTERA_LANUSSE;87.0;0.0;1.0;;;;;;0.0;0.0;0.0;0.0;1.0;43.17214311191034;0.29184636819576504
51196;51530;CRAMANT;538.0;0.9;1.0;;;;;;0.0;0.0;0.0;0.0;1.0;48.987570023437044;4.000918850056063
22314;22600;SAINT_MAUDAN;681.0;0.4;1.0;;;;;;0.0;0.0;0.0;0.0;1.0;48.11141256780317;-2.767696371258903
64424;64130;ORDIARP;3102.0;0.5;1.0;;;;;;0.0;0.0;0.0;0.0;1.0;43.18987268844803;-0.963886517377154
62096;62124;BEAUMETZ_LES_CAMBRAI;997.0;0.6000000000000001;1.0;;;;;;0.0;0.0;0.0;0.0;1.0;50.1255965767374;2.9865962252066023
76054;76630;BAILLY_EN_RIVIERE;2045.0;0.6000000000000001;1.0;;;;;;0.0;0.0;0.0;0.0;1.0;49.90792955177848;1.350354245487942
02230;02220;COUVRELLES;753.0;0.2;1.0;;;;;;0.0;0.0;0.0;0.0;1.0;49.333984100880954;3.484869540642594
86107;86320;GOUEX;1826.0;0.5;1.0;;;;;;0.0;0.0;0.0;0.0;1.0;46.36886803495825;0.6648236805762111
02342;02260;GERGNY;600.0;0.2;1.0;;;;;;0.0;0.0;0.0;0.0;1.0;49.9326319224923;3.929723847135599
02034;02300;AUDIGNICOURT;574.0;0.1;1.0;;;;;;0.0;0.0;0.0;0.0;1.0;49.47771572139487;3.127185028248405
80596;80600;NEUVILLETTE;320.0;0.2;1.0;;;;;;0.0;0.0;0.0;0.0;1.0;50.20843392965803;2.314630341903632
86173;86200;MOUTERRE_SILLY;3105.0;0.7000000000000001;1.0;;;;;;0.0;0.0;0.0;0.0;1.0;46.98624365222402;0.036932423835889
86241;86220;SAINT_REMY_SUR_CREUSE;1298.0;0.4;1.0;;;;;;0.0;0.0;0.0;0.0;1.0;46.934761064965926;0.680675303739518
32304;32140;PANASSAC;925.0;0.3;1.0;;;;;;0.0;0.0;0.0;0.0;1.0;43.38499800237435;0.567746162920436
27597;27210;SAINT_PIERRE_DU_VAL;1215.0;0.5;1.0;;;;;;0.0;0.0;0.0;0.0;1.0;49.390892944024294;0.36648599291855405
34039;34140;BOUZIGUES;653.0;1.6;1.0;;;;;;0.0;0.0;0.0;0.0;1.0;43.44532077420784;3.6570755506777433
32403;32290;SAINT_PIERRE_D'AUBEZIES;839.0;0.1;1.0;;;;;;0.0;0.0;0.0;0.0;1.0;43.649389656534595;0.162149090404827
41135;41320;MENNETOU_SUR_CHER;1624.0;0.9;1.0;;;;;;0.0;0.0;0.0;0.0;1.0;47.29278019529037;1.875200748898115
77384;77550;REAU;1329.0;1.1;1.0;;;;;;0.0;0.0;0.0;0.0;1.0;48.60739313658914;2.62398597049378
85240;85590;SAINT_MALO_DU_BOIS;1425.0;1.5;3.0;;;;;;0.0;0.0;0.0;0.0;3.0;46.92481202910235;-0.9141829610985861
01308;01550;POUGNY;768.0;0.8;1.0;;;;;;0.0;0.0;0.0;0.0;1.0;46.14509146849421;5.951004792908815
45206;45490;MIGNERES;512.0;0.3;1.0;10000889.0;LOIRET;CENTRE;;;0.0;5e-08;3.3000000000000003;0.000261;4.3002610500000005;48.048546334678846;2.62158631692479
47050;47340;CASSIGNAS;794.0;0.1;1.0;;;;;;0.0;0.0;0.0;0.0;1.0;44.300093962416625;0.781102690760576
11067;11200;CANET;1402.0;1.3;1.0;;;;;;0.0;0.0;0.0;0.0;1.0;43.22632707961654;2.831239990159408
17139;17330;DOEUIL_SUR_LE_MIGNON;1948.0;0.3;1.0;;;;;;0.0;0.0;0.0;0.0;1.0;46.12386163224748;-0.549321763075421
18170;18700;OIZON;6230.0;0.7000000000000001;1.0;;;;;;0.0;0.0;0.0;0.0;1.0;47.45317804315276;2.512601807848673
2B113;20237;FICAJA;511.0;0.0;2.0;;;;;;0.0;0.0;0.0;0.0;2.0;42.42094076196664;9.378476393121211
54146;54113;CREZILLES;956.0;0.3;1.0;;;;;;0.0;0.0;0.0;0.0;1.0;48.582279201617546;5.889306227462627
50622;50490;VAUDRIMESNIL;606.0;0.4;3.0;;;;;;0.0;0.0;0.0;0.0;3.0;49.161066513479525;-1.418526761388875
16204;16120;MALAVILLE;1285.0;0.4;1.0;;;;;;0.0;0.0;0.0;0.0;1.0;45.55252369647116;-0.103272182432403
80090;80200;BERNY_EN_SANTERRE;450.0;0.2;1.0;5104844.0;SOMME;HAUTS-DE-FRANCE;;;0.0;5e-08;1.2000000000000002;0.0;2.20000005;49.86654751782333;2.850581263969323
40278;40200;SAINT_PAUL_EN_BORN;4347.0;0.8;1.0;;;;;;0.0;0.0;0.0;0.0;1.0;44.20099539726378;-1.150279906938903
58297;58260;TROIS_VEVRES;755.0;0.2;3.0;;;;;;0.0;0.0;0.0;0.0;3.0;46.9112215122015;3.42242349709033
14131;14800;CANAPVILLE;249.0;0.2;1.0;;;;;;0.0;0.0;0.0;0.0;1.0;49.31709351095354;0.136082039095063
40266;40170;SAINT_JULIEN_EN_BORN;7294.0;1.5;1.0;;;;;;0.0;0.0;0.0;0.0;1.0;44.09109229008018;-1.248354435436289
91461;91340;OLLAINVILLE;1140.0;4.5;1.0;6520632.0;ESSONNE;ILE-DE-FRANCE;;;0.0;5e-08;0.6000000000000001;0.0;1.6000000500000002;48.60630917870572;2.218881031380488
52206;52220;FRAMPAS;1030.0;0.2;1.0;;;;;;0.0;0.0;0.0;0.0;1.0;48.519528769339054;4.833279340295472
24355;24250;LA_ROQUE_GAGEAC;721.0;0.4;1.0;;;;;;0.0;0.0;0.0;0.0;1.0;44.817761365833896;1.198610571146441
21045;21410;BARBIREY_SUR_OUCHE;1070.0;0.3;1.0;;;;;;0.0;0.0;0.0;0.0;1.0;47.25203864032906;4.740253208774205
21266;21490;FLACEY;677.0;0.2;1.0;;;;;;0.0;0.0;0.0;0.0;1.0;47.43438381093244;5.134818556338411
14519;14210;PREAUX_BOCAGE;420.0;0.1;1.0;;;;;;0.0;0.0;0.0;0.0;1.0;49.052632123104424;-0.509209645231347
86032;86210;BONNEUIL_MATOURS;4295.0;2.0;1.0;7203080.0;VIENNE;NOUVELLE-AQUITAINE;;;0.0;5e-08;2.0999999999999996;0.0;3.10000005;46.67958051971125;0.566087021512512
57323;57330;HETTANGE_GRANDE;1626.0;7.5;2.0;;;;;;0.0;0.0;0.0;0.0;2.0;49.4173312149387;6.152587486351098
10430;10700;VILLIERS_HERBISSE;2641.0;0.1;1.0;51000230.0;AUBE;GRAND-EST;Air;Ammoniac (NH3);28500.0;0.00285;0.0;0.0;1.00285;48.64295639750484;4.122661962003415
80530;80800;MERICOURT_L'ABBE;692.0;0.6000000000000001;1.0;;;;;;0.0;0.0;0.0;0.0;1.0;49.94506621503149;2.562980353070765
38515;38460;TREPT;1579.0;1.7000000000000002;1.0;6103217.0;ISERE;AUVERGNE-RHONE-ALPES;;;0.0;5e-08;0.0;0.0;1.00000005;45.68879733349484;5.324179677805738
80607;80540;OISSY;554.0;0.2;1.0;;;;;;0.0;0.0;0.0;0.0;1.0;49.902696670596654;2.060258668342878
63284;63430;PONT_DU_CHATEAU;2157.0;10.6;2.0;16300231.0;PUY-DE-DOME;AUVERGNE-RHONE-ALPES;;;0.0;5e-08;35.400000000000006;0.00041999999999999996;37.40042005;45.7984084969066;3.239577383912316
16229;16240;MONTJEAN;809.0;0.3;1.0;;;;;;0.0;0.0;0.0;0.0;1.0;46.07968055881092;0.109828994535813
70050;70190;LA_BARRE;196.0;0.1;2.0;;;;;;0.0;0.0;0.0;0.0;2.0;47.407661668082746;6.170359777531622
59186;59740;ECCLES;355.0;0.1;1.0;;;;;;0.0;0.0;0.0;0.0;1.0;50.198841334767195;4.098133416050532
43080;43500;CRAPONNE_SUR_ARZON;3334.0;2.2;3.0;;;;;;0.0;0.0;0.0;0.0;3.0;45.33185494512771;3.853140045194749
60065;60370;BERTHECOURT;710.0;1.6;1.0;;;;;;0.0;0.0;0.0;0.0;1.0;49.34518330832905;2.222910352842023
2B256;20229;RAPAGGIO;256.0;0.0;1.0;;;;;;0.0;0.0;0.0;0.0;1.0;42.37524623136836;9.384187282405776
50458;50500;SAINT_COME_DU_MONT;1303.0;0.5;1.0;;;;;;0.0;0.0;0.0;0.0;1.0;49.33178966059151;-1.260250054825745
66029;66300;CAIXAS;2795.0;0.1;3.0;;;;;;0.0;0.0;0.0;0.0;3.0;42.60036983339853;2.6617124908460132
16031;16700;BARRO;1072.0;0.4;1.0;;;;;;0.0;0.0;0.0;0.0;1.0;46.005008319426715;0.23582564084595403
28409;28120;VIEUVICQ;1575.0;0.5;1.0;;;;;;0.0;0.0;0.0;0.0;1.0;48.26136051258119;1.206581033434825
61420;61320;SAINTE_MARIE_LA_ROBERT;553.0;0.1;1.0;;;;;;0.0;0.0;0.0;0.0;1.0;48.626122975700426;-0.143899474106286
25133;25870;CHATILLON_LE_DUC;616.0;1.9;2.0;;;;;;0.0;0.0;0.0;0.0;2.0;47.306018692217165;6.00103214603951
28159;28250;LA_FRAMBOISIERE;511.0;0.3;1.0;;;;;;0.0;0.0;0.0;0.0;1.0;48.597334686044675;1.015885563169487
01370;01750;SAINT_LAURENT_SUR_SAONE;53.0;1.7000000000000002;1.0;;;;;;0.0;0.0;0.0;0.0;1.0;46.30514862935004;4.83949202668958
44145;44640;ROUANS;3777.0;2.6;3.0;6300107.0;LOIRE-ATLANTIQUE;PAYS-DE-LA-LOIRE;;;0.0;5e-08;2.4000000000000004;0.0;5.400000050000001;47.176359241431825;-1.843135354993955
23084;23360;LA_FORET_DU_TEMPLE;776.0;0.1;3.0;;;;;;0.0;0.0;0.0;0.0;3.0;46.427122065907696;1.906023624723345
85108;85260;L'HERBERGEMENT;1692.0;2.7;3.0;;;;;;0.0;0.0;0.0;0.0;3.0;46.91662079787221;-1.370335571481825
43234;43170;SAUGUES;7890.0;1.9;3.0;5600267.0;HAUTE-LOIRE;AUVERGNE-RHONE-ALPES;Eau (direct);Nickel et composés (exprimés en tant que Ni);22.7;2.7239999999999997e-06;2.4000000000000004;0.0;5.400002724;44.94820345693609;3.538832363872261
35056;35190;LA_CHAPELLE_AUX_FILTZMEENS;641.0;0.7000000000000001;3.0;;;;;;0.0;0.0;0.0;0.0;3.0;48.38173963882159;-1.818405006295529
02263;02220;DHUIZEL;687.0;0.1;1.0;;;;;;0.0;0.0;0.0;0.0;1.0;49.36022012966708;3.614875907706767
67008;67120;ALTORF;1020.0;1.2;1.0;6701770.0;BAS-RHIN;GRAND-EST;;;0.0;5e-08;3.3000000000000003;0.0;4.30000005;48.52472390669312;7.538982262585484
44221;44810;LA_CHEVALLERAIS;1072.0;1.3;1.0;;;;;;0.0;0.0;0.0;0.0;1.0;47.477183891002774;-1.664932247382491
32424;32400;SEGOS;869.0;0.2;1.0;;;;;;0.0;0.0;0.0;0.0;1.0;43.62990751667839;-0.261024966204193
57029;57580;ARRIANCE;702.0;0.2;1.0;;;;;;0.0;0.0;0.0;0.0;1.0;49.01863117583133;6.503778252167957
50136;50250;COIGNY;457.0;0.2;1.0;;;;;;0.0;0.0;0.0;0.0;1.0;49.32219218428348;-1.388168799739006
11301;11700;PUICHERIC;1389.0;1.1;1.0;;;;;;0.0;0.0;0.0;0.0;1.0;43.229336044157215;2.61236027775936
88186;88500;FRENELLE_LA_PETITE;350.0;0.0;1.0;;;;;;0.0;0.0;0.0;0.0;1.0;48.34976344312629;6.062460534906272
11384;11330;SOULATGE;2477.0;0.1;1.0;;;;;;0.0;0.0;0.0;0.0;1.0;42.879514086043;2.50365865423814
57338;57720;HOTTVILLER;833.0;0.6000000000000001;1.0;;;;;;0.0;0.0;0.0;0.0;1.0;49.078266421597924;7.358080633448642
63395;63450;SAINT_SANDOUX;978.0;0.9;3.0;;;;;;0.0;0.0;0.0;0.0;3.0;45.638351224107375;3.108329068701729
69048;69700;CHASSAGNY;920.0;1.2;3.0;;;;;;0.0;0.0;0.0;0.0;3.0;45.60528533088159;4.7309116368751845
48057;48700;ESTABLES;3311.0;0.2;3.0;;;;;;0.0;0.0;0.0;0.0;3.0;44.67595952619519;3.5087676094094693
41284;41290;VILLENEUVE_FROUVILLE;431.0;0.1;1.0;;;;;;0.0;0.0;0.0;0.0;1.0;47.78522580189668;1.317242129601067
16094;16460;CHENOMMET;449.0;0.2;1.0;;;;;;0.0;0.0;0.0;0.0;1.0;45.93430024023216;0.25295550130792605
25531;25340;SANTOCHE;214.0;0.1;1.0;;;;;;0.0;0.0;0.0;0.0;1.0;47.409232539326695;6.502874706102315
01037;01470;BENONCES;1532.0;0.3;1.0;;;;;;0.0;0.0;0.0;0.0;1.0;45.837497471825046;5.4828533086296
57120;57170;BURLIONCOURT;739.0;0.2;1.0;6201054.0;MOSELLE;GRAND-EST;;;0.0;5e-08;1.7999999999999998;0.0;2.8000000499999995;48.8625578408118;6.579519561714221
31347;31230;MOLAS;1062.0;0.2;1.0;;;;;;0.0;0.0;0.0;0.0;1.0;43.40036077817802;0.779212974902535
28109;28240;LES_CORVEES_LES_YYS;1373.0;0.3;1.0;;;;;;0.0;0.0;0.0;0.0;1.0;48.36525750386365;1.1475431806708931
52275;52140;LAVERNOY;454.0;0.1;1.0;;;;;;0.0;0.0;0.0;0.0;1.0;47.916113665502394;5.575755681269195
71294;71640;MERCUREY;1555.0;1.3;3.0;;;;;;0.0;0.0;0.0;0.0;3.0;46.83431843302086;4.724132335047462
80239;80200;DEVISE;277.0;0.1;1.0;;;;;;0.0;0.0;0.0;0.0;1.0;49.85113160532515;3.008633701136079
45265;45210;ROZOY_LE_VIEIL;821.0;0.4;1.0;;;;;;0.0;0.0;0.0;0.0;1.0;48.11834321607265;2.951419299167613
14433;14170;MITTOIS;732.0;0.2;1.0;;;;;;0.0;0.0;0.0;0.0;1.0;49.005786225098426;0.033116516250041
88390;88320;ROBECOURT;875.0;0.1;1.0;;;;;;0.0;0.0;0.0;0.0;1.0;48.137469252758756;5.709388706696829
91044;91160;BALLAINVILLIERS;399.0;3.8;1.0;6520091.0;ESSONNE;ILE-DE-FRANCE;;;0.0;5e-08;2.0999999999999996;3e-06;3.1000030499999998;48.67132408019351;2.289138745020021
54263;54310;HOMECOURT;450.0;6.4;2.0;;;;;;0.0;0.0;0.0;0.0;2.0;49.22247980497189;5.992705637671757
02072;02820;BERRIEUX;501.0;0.2;1.0;;;;;;0.0;0.0;0.0;0.0;1.0;49.482356396221;3.852103183896385
89098;89700;CHENEY;595.0;0.3;1.0;;;;;;0.0;0.0;0.0;0.0;1.0;47.913111591252026;3.961665762091862
21521;21560;REMILLY_SUR_TILLE;974.0;0.8;1.0;;;;;;0.0;0.0;0.0;0.0;1.0;47.30738399063256;5.231405233966702
52164;52400;DAMREMONT;478.0;0.2;1.0;;;;;;0.0;0.0;0.0;0.0;1.0;47.948755784702556;5.641050936132702
55078;55110;BRIEULLES_SUR_MEUSE;2400.0;0.3;1.0;;;;;;0.0;0.0;0.0;0.0;1.0;49.327384750565095;5.165314183406195
45227;45500;NEVOY;3097.0;1.1;1.0;;;;;;0.0;0.0;0.0;0.0;1.0;47.73336985705782;2.592409369358994
21557;21450;SAINT_MARC_SUR_SEINE;840.0;0.1;1.0;;;;;;0.0;0.0;0.0;0.0;1.0;47.700098434576894;4.599727858217394
27034;27440;BACQUEVILLE;1103.0;0.5;1.0;;;;;;0.0;0.0;0.0;0.0;1.0;49.32192034581367;1.3665865765818461
17119;17600;CORME_ECLUSE;1755.0;1.0;1.0;;;;;;0.0;0.0;0.0;0.0;1.0;45.63225899318213;-0.864025818727522
72104;72260;COURGAINS;1476.0;0.6000000000000001;1.0;57200637.0;SARTHE;PAYS-DE-LA-LOIRE;Air;Ammoniac (NH3);11000.0;0.0011;0.0;0.0;1.0011;48.29076412089155;0.27666331690003904
62168;62650;BOURTHES;2244.0;0.7000000000000001;1.0;;;;;;0.0;0.0;0.0;0.0;1.0;50.61336916421582;1.9349952248405722
76201;76780;CROISY_SUR_ANDELLE;376.0;0.5;1.0;;;;;;0.0;0.0;0.0;0.0;1.0;49.45947534676636;1.4068172424363241
55463;55300;SAINT_MIHIEL;3298.0;4.8;1.0;;;;;;0.0;0.0;0.0;0.0;1.0;48.891294858722546;5.5824323620339875
33050;33210;BIEUJAC;698.0;0.5;1.0;;;;;;0.0;0.0;0.0;0.0;1.0;44.5383649764002;-0.15439848327903302
61505;61160;VILLEDIEU_LES_BAILLEUL;473.0;0.2;3.0;;;;;;0.0;0.0;0.0;0.0;3.0;48.79957668236602;0.018031217498882
40132;40300;LABATUT;2120.0;1.4;1.0;5201604.0;LANDES;NOUVELLE-AQUITAINE;Air;Méthane (CH4);569000.0;0.0569;3.9000000000000004;0.0;4.956900000000001;43.5522821805606;-0.9982342585885581
86195;86220;PORT_DE_PILES;578.0;0.5;1.0;;;;;;0.0;0.0;0.0;0.0;1.0;46.999966775504916;0.597724731809637
14649;14700;SAINT_PIERRE_DU_BU;745.0;0.4;3.0;;;;;;0.0;0.0;0.0;0.0;3.0;48.86460407383165;-0.204189427047187
76596;76700;SAINT_LAURENT_DE_BREVEDENT;785.0;1.4;1.0;;;;;;0.0;0.0;0.0;0.0;1.0;49.532596665320604;0.26928171439841403
61317;61230;ORGERES;1221.0;0.2;1.0;;;;;;0.0;0.0;0.0;0.0;1.0;48.752506479008254;0.345680515600496
81122;81340;LACAPELLE_PINET;817.0;0.1;3.0;;;;;;0.0;0.0;0.0;0.0;3.0;44.0677076413596;2.354346931559776
24360;24170;SAGELAT;780.0;0.4;1.0;;;;;;0.0;0.0;0.0;0.0;1.0;44.78480997406413;1.02305020724963
95197;95170;DEUIL_LA_BARRE;373.0;21.7;1.0;;;;;;0.0;0.0;0.0;0.0;1.0;48.971269017143534;2.326162901444091
31237;31260;HIS;516.0;0.2;1.0;;;;;;0.0;0.0;0.0;0.0;1.0;43.064990842398544;0.9658150372587411
88503;88110;VEXAINCOURT;1141.0;0.2;1.0;;;;;;0.0;0.0;0.0;0.0;1.0;48.481554036132394;7.064633121351552
26221;26400;OMBLEZE;4505.0;0.1;1.0;;;;;;0.0;0.0;0.0;0.0;1.0;44.86384312141797;5.230782071008743
70305;70100;LOEUILLEY;563.0;0.1;1.0;;;;;;0.0;0.0;0.0;0.0;1.0;47.46597330020097;5.400175837583453
11425;11600;VILLEGAILHENC;504.0;1.6;1.0;;;;;;0.0;0.0;0.0;0.0;1.0;43.27180256614163;2.346926678962848
21546;21210;SAINT_DIDIER;2152.0;0.2;3.0;;;;;;0.0;0.0;0.0;0.0;3.0;47.31680674418489;4.173390589527944
47184;47210;MONTAUT;1426.0;0.2;1.0;;;;;;0.0;0.0;0.0;0.0;1.0;44.60582458989897;0.682418964392803
11352;11500;SAINT_LOUIS_ET_PARAHOU;1603.0;0.1;1.0;;;;;;0.0;0.0;0.0;0.0;1.0;42.851588065961494;2.3219710944353382
57628;57430;SARRALBE;2736.0;4.6;1.0;6207572.0;MOSELLE;GRAND-EST;Air;Composés organiques volatils non méthaniques (COVNM);1880000.0;0.376;8.100000000000001;0.0;9.476;48.99569646361517;7.011585366676118
44169;44450;SAINT_JULIEN_DE_CONCELLES;3326.0;6.8;3.0;6302096.0;LOIRE-ATLANTIQUE;PAYS-DE-LA-LOIRE;;;0.0;5e-08;1.2000000000000002;0.0;4.20000005;47.24630175697817;-1.4063957184408031
61371;61150;SAINT_BRICE_SOUS_RANES;957.0;0.2;3.0;;;;;;0.0;0.0;0.0;0.0;3.0;48.678445082080906;-0.19335744416993803
61509;61250;VINGT_HANAPS;1169.0;0.4;1.0;;;;;;0.0;0.0;0.0;0.0;1.0;48.52278141467337;0.126237614057919
10441;10130;VOSNON;1277.0;0.2;1.0;;;;;;0.0;0.0;0.0;0.0;1.0;48.10859696710362;3.8353915259883573
02618;02110;PREMONT;1220.0;0.7000000000000001;1.0;;;;;;0.0;0.0;0.0;0.0;1.0;50.01430675326815;3.3972525800828572
43110;43100;LAMOTHE;1245.0;0.8;3.0;;;;;;0.0;0.0;0.0;0.0;3.0;45.31494830526945;3.426934310187652
24508;24350;SAINT_VICTOR;504.0;0.2;1.0;;;;;;0.0;0.0;0.0;0.0;1.0;45.26280840467027;0.44263466399440604
84026;84160;CADENET;2583.0;4.1;1.0;;;;;;0.0;0.0;0.0;0.0;1.0;43.730405628151146;5.383543196664851
51550;51320;SOMPUIS;4336.0;0.3;1.0;;;;;;0.0;0.0;0.0;0.0;1.0;48.6855555732876;4.37611550867852
58290;58250;THAIX;2023.0;0.1;1.0;;;;;;0.0;0.0;0.0;0.0;1.0;46.84932250956049;3.713310134980998
89176;89450;FONTENAY_PRES_VEZELAY;1585.0;0.2;1.0;;;;;;0.0;0.0;0.0;0.0;1.0;47.41554345563499;3.739514037960305
55148;55130;DELOUZE_ROSIERES;1507.0;0.1;1.0;;;;;;0.0;0.0;0.0;0.0;1.0;48.565745167427664;5.5307670678521905
71491;71600;SAINT_YAN;2622.0;1.1;1.0;;;;;;0.0;0.0;0.0;0.0;1.0;46.407174620894004;4.057669886871553
17091;17230;CHARRON;3594.0;2.3;1.0;;;;;;0.0;0.0;0.0;0.0;1.0;46.293690377100525;-1.080920398557625
54495;54420;SAULXURES_LES_NANCY;725.0;3.9;2.0;;;;;;0.0;0.0;0.0;0.0;2.0;48.68583347501362;6.253948873423607
02674;02360;SAINT_CLEMENT;512.0;0.1;1.0;;;;;;0.0;0.0;0.0;0.0;1.0;49.775279957864754;4.072889011645594
07054;07310;CHANEAC;1583.0;0.3;1.0;;;;;;0.0;0.0;0.0;0.0;1.0;44.930042445165995;4.306926881940173
73270;73250;SAINT_PIERRE_D'ALBIGNY;1916.0;3.7;1.0;;;;;;0.0;0.0;0.0;0.0;1.0;45.576325939831484;6.159857136699739
07249;07320;SAINT_JEURE_D'ANDAURE;1342.0;0.1;1.0;;;;;;0.0;0.0;0.0;0.0;1.0;45.047837368091315;4.4639568524558975
08306;08130;MONT_LAURENT;678.0;0.1;1.0;;;;;;0.0;0.0;0.0;0.0;1.0;49.46373403009025;4.478347275085432
25610;25580;VERRIERES_DU_GROSBOIS;792.0;0.0;1.0;;;;;;0.0;0.0;0.0;0.0;1.0;47.19210394108874;6.282195872585518
24199;24320;GOUT_ROSSIGNOL;2503.0;0.4;1.0;;;;;;0.0;0.0;0.0;0.0;1.0;45.416336715923975;0.40556165007038003
68201;68290;MASEVAUX;2320.0;3.3;3.0;6700640.0;HAUT-RHIN;GRAND-EST;;;0.0;5e-08;1.7999999999999998;0.0;4.8000000499999995;47.77786075143784;6.99469023454898
18143;18320;MENETOU_COUTURE;2982.0;0.3;1.0;;;;;;0.0;0.0;0.0;0.0;1.0;47.04199751144633;2.936497998085936
59277;59570;GUSSIGNIES;339.0;0.3;1.0;;;;;;0.0;0.0;0.0;0.0;1.0;50.34058327721428;3.749985098993389
26163;26190;LEONCEL;4290.0;0.1;1.0;;;;;;0.0;0.0;0.0;0.0;1.0;44.92414410024174;5.205448562734221
87113;87410;LE_PALAIS_SUR_VIENNE;1036.0;5.9;3.0;;;;;;0.0;0.0;0.0;0.0;3.0;45.873459520245596;1.3252679959463691
73285;73700;SEEZ;4251.0;2.3;3.0;;;;;;0.0;0.0;0.0;0.0;3.0;45.6478054905228;6.835756247065808
46144;46200;LACAVE;2198.0;0.3;1.0;;;;;;0.0;0.0;0.0;0.0;1.0;44.840449829816244;1.558491924825984
27577;27680;SAINTE_OPPORTUNE_LA_MARE;1097.0;0.4;1.0;;;;;;0.0;0.0;0.0;0.0;1.0;49.424848176749386;0.533630300173742
32399;32120;SAINT_ORENS;435.0;0.1;1.0;;;;;;0.0;0.0;0.0;0.0;1.0;43.71273733302594;0.9158124413489541
68343;68190;UNGERSHEIM;1361.0;2.0;1.0;6702162.0;HAUT-RHIN;GRAND-EST;Air;Composés organiques volatils non méthaniques (COVNM);168000.0;0.033600000000000005;0.6000000000000001;0.0;1.6336;47.8739838916313;7.305326687172478
08456;08800;TOURNAVAUX;165.0;0.2;1.0;;;;;;0.0;0.0;0.0;0.0;1.0;49.87281276380936;4.783948046836374
38319;38680;PONT_EN_ROYANS;288.0;0.9;1.0;;;;;;0.0;0.0;0.0;0.0;1.0;45.060923660731646;5.345914721759743
71421;71800;SAINT_GERMAIN_EN_BRIONNAIS;591.0;0.2;3.0;;;;;;0.0;0.0;0.0;0.0;3.0;46.34653651363625;4.251072344742719
53246;53370;SAINT_PIERRE_DES_NIDS;3703.0;1.9;3.0;;;;;;0.0;0.0;0.0;0.0;3.0;48.39811891391376;-0.108578317473111
36058;36300;CONCREMIERS;2809.0;0.6000000000000001;1.0;;;;;;0.0;0.0;0.0;0.0;1.0;46.59399534571403;1.015918873639528
68089;68470;FELLERING;2115.0;1.7000000000000002;3.0;;;;;;0.0;0.0;0.0;0.0;3.0;47.9157234129491;6.95863361019126
88474;88300;TILLEUX;387.0;0.1;1.0;;;;;;0.0;0.0;0.0;0.0;1.0;48.30068785197573;5.731480189272801
70124;70100;CHAMPTONNAY;523.0;0.1;1.0;;;;;;0.0;0.0;0.0;0.0;1.0;47.37589967808027;5.661343666301933
27224;27110;EPREVILLE_PRES_LE_NEUBOURG;777.0;0.5;1.0;;;;;;0.0;0.0;0.0;0.0;1.0;49.12955097645038;0.87627943070331
10161;10200;FRESNAY;757.0;0.0;1.0;;;;;;0.0;0.0;0.0;0.0;1.0;48.30917654045771;4.75726662975767
02537;02880;NANTEUIL_LA_FOSSE;739.0;0.1;1.0;;;;;;0.0;0.0;0.0;0.0;1.0;49.43380108139998;3.448000414366036
57671;57580;THIMONVILLE;739.0;0.2;1.0;;;;;;0.0;0.0;0.0;0.0;1.0;48.94468962863672;6.393673536133766
88002;88500;AHEVILLE;587.0;0.1;1.0;;;;;;0.0;0.0;0.0;0.0;1.0;48.28462893981118;6.199356833155652
71238;71340;IGUERANDE;2140.0;1.0;1.0;;;;;;0.0;0.0;0.0;0.0;1.0;46.216527205569214;4.076996927620969
64216;64420;ESPOEY;1354.0;1.0;1.0;;;;;;0.0;0.0;0.0;0.0;1.0;43.25149962659138;-0.15542176289102103
03315;03430;VILLEFRANCHE_D'ALLIER;3984.0;1.3;1.0;5601311.0;ALLIER;AUVERGNE-RHONE-ALPES;Sol;Zinc et composés (exprimés en tant que Zn);114.0;1.71e-05;3.0;0.0;4.0000171;46.396311035727656;2.841268959255504
18019;18220;AZY;2795.0;0.5;1.0;;;;;;0.0;0.0;0.0;0.0;1.0;47.19206880380696;2.710438990445195
88441;88260;SANS_VALLOIS;448.0;0.1;1.0;;;;;;0.0;0.0;0.0;0.0;1.0;48.16176446371223;6.103017762495117
2A070;20111;CASAGLIONE;1492.0;0.4;3.0;;;;;;0.0;0.0;0.0;0.0;3.0;42.06958240940224;8.759993054528898
57434;57810;MAIZIERES_LES_VIC;2601.0;0.5;1.0;;;;;;0.0;0.0;0.0;0.0;1.0;48.70957535839179;6.784012758883697
31391;31260;MONTSAUNES;912.0;0.4;1.0;;;;;;0.0;0.0;0.0;0.0;1.0;43.110281481877536;0.932230467606132
76679;76560;SOMMESNIL;302.0;0.1;1.0;;;;;;0.0;0.0;0.0;0.0;1.0;49.71066734232078;0.671152911759478
54434;54116;PRAYE;874.0;0.3;1.0;;;;;;0.0;0.0;0.0;0.0;1.0;48.437631951990824;6.111477445214056
62645;62215;OYE_PLAGE;3398.0;5.5;1.0;;;;;;0.0;0.0;0.0;0.0;1.0;50.981232990254355;2.039306885935776
18051;18250;LA_CHAPELOTTE;2882.0;0.2;1.0;;;;;;0.0;0.0;0.0;0.0;1.0;47.334222631844426;2.5989427381984793
59319;59492;HOYMILLE;560.0;3.2;1.0;7005385.0;NORD;HAUTS-DE-FRANCE;;;0.0;5e-08;1.5;0.0;2.5000000499999997;50.97277995671916;2.455472195786072
83128;83690;SILLANS_LA_CASCADE;2024.0;0.6000000000000001;1.0;;;;;;0.0;0.0;0.0;0.0;1.0;43.565882405592696;6.165152405753015
07138;07170;LAVILLEDIEU;1488.0;1.9;1.0;10200017.0;ARDECHE;AUVERGNE-RHONE-ALPES;;;0.0;5e-08;2.4000000000000004;1.9500000000000002;5.35000005;44.5821673926755;4.447820501686038
63287;63500;LES_PRADEAUX;559.0;0.3;1.0;;;;;;0.0;0.0;0.0;0.0;1.0;45.51326975868022;3.291598847876169
55407;55200;PONT_SUR_MEUSE;361.0;0.1;1.0;;;;;;0.0;0.0;0.0;0.0;1.0;48.808094103119984;5.5519559068443325
28373;28250;SENONCHES;6280.0;3.2;1.0;;;;;;0.0;0.0;0.0;0.0;1.0;48.55958917403499;1.019057570794675
14237;14630;EMIEVILLE;396.0;0.5;1.0;;;;;;0.0;0.0;0.0;0.0;1.0;49.15360616859039;-0.22404067294502103
12183;12550;PLAISANCE;1400.0;0.2;1.0;;;;;;0.0;0.0;0.0;0.0;1.0;43.9298419069904;2.562663840441074
58159;58800;MARIGNY_SUR_YONNE;1122.0;0.2;2.0;;;;;;0.0;0.0;0.0;0.0;2.0;47.2876574050086;3.642429141644598
39363;39320;MONTREVEL;638.0;0.1;1.0;;;;;;0.0;0.0;0.0;0.0;1.0;46.426023525693786;5.494938002110234
45279;45220;SAINT_GERMAIN_DES_PRES;2639.0;1.9;1.0;;;;;;0.0;0.0;0.0;0.0;1.0;47.965662835642064;2.848903217824978
55508;55600;THONNE_LA_LONG;958.0;0.3;1.0;;;;;;0.0;0.0;0.0;0.0;1.0;49.566198666227876;5.425625531097243
09282;09700;SAVERDUN;6211.0;4.5;1.0;6806172.0;ARIEGE;OCCITANIE;;;0.0;5e-08;1.2000000000000002;0.0;2.20000005;43.22656673206145;1.573736345693216
54429;54160;PIERREVILLE;301.0;0.3;1.0;;;;;;0.0;0.0;0.0;0.0;1.0;48.54857462681286;6.11074927639445
10020;10400;AVANT_LES_MARCILLY;2773.0;0.5;1.0;;;;;;0.0;0.0;0.0;0.0;1.0;48.43233517499797;3.560133693628663
62501;62990;LESPINOY;399.0;0.2;1.0;;;;;;0.0;0.0;0.0;0.0;1.0;50.42761541916386;1.8644787186574812
28275;28210;NERON;1925.0;0.6000000000000001;1.0;;;;;;0.0;0.0;0.0;0.0;1.0;48.59618266315076;1.503078457439096
19170;19120;QUEYSSAC_LES_VIGNES;1117.0;0.2;1.0;;;;;;0.0;0.0;0.0;0.0;1.0;44.96449749994477;1.767881164890429
10341;10100;SAINT_HILAIRE_SOUS_ROMILLY;2017.0;0.4;1.0;5702074.0;AUBE;GRAND-EST;;;0.0;5e-08;0.8999999999999999;0.0;1.90000005;48.49786436519702;3.65717692243113
84060;84400;LAGARDE_D'APT;2232.0;0.0;1.0;;;;;;0.0;0.0;0.0;0.0;1.0;43.98387297857171;5.481644170705205
54084;54111;MONT_BONVILLERS;703.0;1.0;2.0;;;;;;0.0;0.0;0.0;0.0;2.0;49.326846763706236;5.842870188319367
38070;38190;LE_CHAMP_PRES_FROGES;487.0;1.2;1.0;;;;;;0.0;0.0;0.0;0.0;1.0;45.281483230810665;5.938631473177086
91079;91690;BOISSY_LA_RIVIERE;1249.0;0.5;1.0;;;;;;0.0;0.0;0.0;0.0;1.0;48.382414662459695;2.1700508672125602
22232;22410;PLOURHAN;1724.0;2.0;3.0;;;;;;0.0;0.0;0.0;0.0;3.0;48.6312552227731;-2.882033677648198
46245;46360;SABADEL_LAUZES;875.0;0.1;1.0;;;;;;0.0;0.0;0.0;0.0;1.0;44.55973624492834;1.607576076700493
41003;41100;AREINES;485.0;0.6000000000000001;1.0;;;;;;0.0;0.0;0.0;0.0;1.0;47.79804897890103;1.102778912670269
10316;10170;RHEGES;1477.0;0.2;1.0;;;;;;0.0;0.0;0.0;0.0;1.0;48.532012139090355;3.994608369960407
22303;22330;SAINT_JACUT_DU_MENE;1996.0;0.7000000000000001;1.0;;;;;;0.0;0.0;0.0;0.0;1.0;48.27815823936166;-2.486232262731685
57636;57412;SCHMITTVILLER;233.0;0.3;1.0;;;;;;0.0;0.0;0.0;0.0;1.0;49.007156093828314;7.186055545314901
59615;59232;VIEUX_BERQUIN;2618.0;2.4;1.0;;;;;;0.0;0.0;0.0;0.0;1.0;50.69325047153666;2.620689171245511
73245;73170;SAINT_JEAN_DE_CHEVELU;1267.0;0.7000000000000001;1.0;;;;;;0.0;0.0;0.0;0.0;1.0;45.695487752932;5.826494909286484
28380;28630;SOURS;3314.0;1.8;1.0;10000172.0;EURE-ET-LOIR;CENTRE;;;0.0;5e-08;1.5;3e-06;2.50000305;48.41349549306888;1.596452964836412
12287;12200;VAILHOURLES;3246.0;0.6000000000000001;1.0;;;;;;0.0;0.0;0.0;0.0;1.0;44.308212946733995;1.9093772256290942
57564;57810;RECHICOURT_LE_CHATEAU;2564.0;0.6000000000000001;1.0;;;;;;0.0;0.0;0.0;0.0;1.0;48.67840774701254;6.842761807664392
70228;70160;FAVERNEY;1845.0;1.0;2.0;12200020.0;HAUTE-SAONE;BOURGOGNE-FRANCHE-COMTE;Air;Méthane (CH4);349000.0;0.0349;0.30000000000000004;0.0;2.3349;47.766104028317216;6.079988504462014
37210;37500;SAINT_BENOIT_LA_FORET;3563.0;0.9;1.0;10000690.0;INDRE-ET-LOIRE;CENTRE;;;0.0;5e-08;3.5999999999999996;0.0;4.60000005;47.21289647107869;0.32199944138254005
18076;18210;COUST;2215.0;0.5;1.0;;;;;;0.0;0.0;0.0;0.0;1.0;46.683985112010355;2.599048168497383
69049;69380;CHASSELAY;1289.0;2.7;2.0;;;;;;0.0;0.0;0.0;0.0;2.0;45.874955852461;4.7708529699037765
50231;50590;HAUTEVILLE_SUR_MER;336.0;0.6000000000000001;1.0;;;;;;0.0;0.0;0.0;0.0;1.0;48.974113220381255;-1.544366284190233
17341;17500;SAINT_GERMAIN_DE_VIBRAC;715.0;0.2;1.0;;;;;;0.0;0.0;0.0;0.0;1.0;45.42140331317041;-0.32782534719369805
79091;79140;CIRIERES;1715.0;1.0;3.0;;;;;;0.0;0.0;0.0;0.0;3.0;46.84097796959086;-0.6219046920489251
33303;33750;NERIGEAN;1029.0;0.9;1.0;;;;;;0.0;0.0;0.0;0.0;1.0;44.843131883006585;-0.28495549614464905
12234;12120;SAINTE_JULIETTE_SUR_VIAUR;1674.0;0.5;3.0;;;;;;0.0;0.0;0.0;0.0;3.0;44.21863964380746;2.501139252528898
80356;80140;FRESNOY_ANDAINVILLE;398.0;0.1;1.0;;;;;;0.0;0.0;0.0;0.0;1.0;49.90860240094163;1.7917871180624032
67196;67600;HILSENHEIM;2031.0;2.5;1.0;;;;;;0.0;0.0;0.0;0.0;1.0;48.296957325117944;7.573119377570951
73196;73200;PALLUD;517.0;0.7000000000000001;1.0;;;;;;0.0;0.0;0.0;0.0;1.0;45.69329596006924;6.389980497190563
54445;54370;RAVILLE_SUR_SANON;330.0;0.1;1.0;;;;;;0.0;0.0;0.0;0.0;1.0;48.65153303524142;6.510089484925841
10135;10200;ECLANCE;1146.0;0.1;1.0;;;;;;0.0;0.0;0.0;0.0;1.0;48.30746670852107;4.643231316456605
85009;85200;AUZAY;1380.0;0.6000000000000001;1.0;;;;;;0.0;0.0;0.0;0.0;1.0;46.44743861606158;-0.876574265148595
31145;31550;CINTEGABELLE;5360.0;2.6;1.0;;;;;;0.0;0.0;0.0;0.0;1.0;43.306827534689425;1.5357210477714651
64210;64350;ESCURES;427.0;0.2;1.0;;;;;;0.0;0.0;0.0;0.0;1.0;43.46590007417362;-0.12340309135772201
65006;65440;ANCIZAN;4160.0;0.3;3.0;;;;;;0.0;0.0;0.0;0.0;3.0;42.89933456791794;0.283796847932601
61271;61320;LE_MENIL_SCELLEUR;542.0;0.1;3.0;;;;;;0.0;0.0;0.0;0.0;3.0;48.61316529549004;-0.124894508969299
27023;27180;AULNAY_SUR_ITON;153.0;0.7000000000000001;1.0;;;;;;0.0;0.0;0.0;0.0;1.0;48.99394713989895;1.055098027909526
02056;02300;BEAUMONT_EN_BEINE;540.0;0.2;1.0;;;;;;0.0;0.0;0.0;0.0;1.0;49.687463388199674;3.131333693351004
52375;52600;PALAISEUL;499.0;0.1;1.0;;;;;;0.0;0.0;0.0;0.0;1.0;47.766962804155945;5.417318919364493
57196;57720;ERCHING;679.0;0.4;1.0;;;;;;0.0;0.0;0.0;0.0;1.0;49.11451503942652;7.2653947574667
26139;26750;GENISSIEUX;909.0;2.0;1.0;;;;;;0.0;0.0;0.0;0.0;1.0;45.08191479998994;5.090237462215319
63121;63114;COUDES;471.0;1.1;3.0;;;;;;0.0;0.0;0.0;0.0;3.0;45.61051519943432;3.201433059320318
46115;46400;FRAYSSINHES;1183.0;0.2;3.0;;;;;;0.0;0.0;0.0;0.0;3.0;44.87261044174096;1.941325326827604
68156;68500;ISSENHEIM;817.0;3.4;2.0;6702151.0;HAUT-RHIN;GRAND-EST;Eau (indirect);Demande biologique en oxygène (DBO5);242000.0;0.0121;3.0;0.0;5.0121;47.90363588459699;7.257869728052751
02536;02200;NAMPTEUIL_SOUS_MURET;338.0;0.1;1.0;;;;;;0.0;0.0;0.0;0.0;1.0;49.30514039686664;3.433980035157799
69244;69160;TASSIN_LA_DEMI_LUNE;795.0;19.0;1.0;;;;;;0.0;0.0;0.0;0.0;1.0;45.76286817685373;4.755405955427306
89119;89480;COULANGES_SUR_YONNE;1053.0;0.6000000000000001;1.0;;;;;;0.0;0.0;0.0;0.0;1.0;47.54147307602618;3.524517569497811
24414;24140;SAINT_GEORGES_DE_MONTCLARD;1359.0;0.3;1.0;;;;;;0.0;0.0;0.0;0.0;1.0;44.93317731207003;0.61087486418821
51639;51270;LA_VILLE_SOUS_ORBAIS;1109.0;0.1;1.0;;;;;;0.0;0.0;0.0;0.0;1.0;48.96526422547535;3.6770695141433682
07166;07270;NOZIERES;2182.0;0.3;1.0;;;;;;0.0;0.0;0.0;0.0;1.0;45.03409431568633;4.546459348688731
72041;72390;BOUER;1199.0;0.3;1.0;;;;;;0.0;0.0;0.0;0.0;1.0;48.07637946866404;0.6338047541022961
15228;15150;SIRAN;5067.0;0.5;3.0;;;;;;0.0;0.0;0.0;0.0;3.0;44.95056385323724;2.120452916320561
64392;64330;MONCLA;579.0;0.1;1.0;;;;;;0.0;0.0;0.0;0.0;1.0;43.581315072526856;-0.222857074215484
77162;77510;DOUE;1999.0;1.0;1.0;;;;;;0.0;0.0;0.0;0.0;1.0;48.87418850922888;3.1686653834079452
54268;54930;HOUSSEVILLE;534.0;0.2;1.0;;;;;;0.0;0.0;0.0;0.0;1.0;48.40773575664707;6.115743716405737
50375;50330;NEVILLE_SUR_MER;355.0;0.2;1.0;;;;;;0.0;0.0;0.0;0.0;1.0;49.69159153710712;-1.339471823028518
77190;77370;FONTAINS;1433.0;0.3;1.0;;;;;;0.0;0.0;0.0;0.0;1.0;48.52176335697724;3.006870605578325
66214;66300;TRESSERRE;1117.0;0.8;1.0;;;;;;0.0;0.0;0.0;0.0;1.0;42.55563205776614;2.837553036529794
29003;29770;AUDIERNE;299.0;2.3;3.0;;;;;;0.0;0.0;0.0;0.0;3.0;48.02410775743036;-4.544487501647994
70153;70120;CINTREY;619.0;0.1;1.0;;;;;;0.0;0.0;0.0;0.0;1.0;47.75351565006105;5.752052143511604
22173;22400;PLANGUENOUAL;3269.0;1.9;3.0;;;;;;0.0;0.0;0.0;0.0;3.0;48.533254214267366;-2.567979563769435
28028;28140;BAZOCHES_EN_DUNOIS;1887.0;0.3;1.0;;;;;;0.0;0.0;0.0;0.0;1.0;48.094552128482015;1.57159369015885
51518;51220;SAINT_THIERRY;755.0;0.6000000000000001;1.0;;;;;;0.0;0.0;0.0;0.0;1.0;49.29762153703478;3.975324061628155
11396;11160;TRAUSSE;1104.0;0.5;2.0;;;;;;0.0;0.0;0.0;0.0;2.0;43.31821865695982;2.568551068145224
38224;38350;MAYRES_SAVEL;1385.0;0.1;1.0;;;;;;0.0;0.0;0.0;0.0;1.0;44.88644562421536;5.710966310536075
33243;33500;LIBOURNE;2068.0;23.8;1.0;;;;;;0.0;0.0;0.0;0.0;1.0;44.913076786881355;-0.23470933206824002
23232;23460;SAINT_PIERRE_BELLEVUE;3283.0;0.2;3.0;;;;;;0.0;0.0;0.0;0.0;3.0;45.90749599566394;1.896281296186821
64516;64160;SEDZERE;1271.0;0.4;1.0;;;;;;0.0;0.0;0.0;0.0;1.0;43.34027611384166;-0.180181129359402
74240;74250;SAINT_JEAN_DE_THOLOME;1228.0;0.9;1.0;;;;;;0.0;0.0;0.0;0.0;1.0;46.11071999594695;6.414946862290836
53148;53400;MEE;869.0;0.2;1.0;;;;;;0.0;0.0;0.0;0.0;1.0;47.801683594297195;-0.8654999456843471
62600;62550;NEDON;497.0;0.2;1.0;;;;;;0.0;0.0;0.0;0.0;1.0;50.51782344451632;2.363070411054462
80618;80230;PENDE;1642.0;1.1;1.0;;;;;;0.0;0.0;0.0;0.0;1.0;50.161196050738496;1.584128828151639
68245;68130;OBERMORSCHWILLER;612.0;0.4;1.0;;;;;;0.0;0.0;0.0;0.0;1.0;47.64147133679062;7.316417393187782
28051;28800;BONNEVAL;2886.0;4.6;1.0;10000411.0;EURE-ET-LOIR;CENTRE;;;0.0;5e-08;2.4000000000000004;2.4e-05;3.4000240500000003;48.181218890807806;1.385334870404853
30131;30630;GOUDARGUES;3045.0;1.0;1.0;;;;;;0.0;0.0;0.0;0.0;1.0;44.208988299055825;4.439369495748572
89417;89700;TISSEY;598.0;0.1;1.0;5426304.0;YONNE;BOURGOGNE-FRANCHE-COMTE;;;0.0;5e-08;0.0;0.0;1.00000005;47.859308251439515;3.8998120362875683
03149;03500;LOUCHY_MONTFAND;536.0;0.4;1.0;;;;;;0.0;0.0;0.0;0.0;1.0;46.30758296868358;3.244919283564493
65048;65390;AURENSAN;718.0;0.7000000000000001;1.0;;;;;;0.0;0.0;0.0;0.0;1.0;43.30622007987395;0.09550120936147001
12056;12160;BARAQUEVILLE;3434.0;3.0;3.0;6810821.0;AVEYRON;OCCITANIE;;;0.0;5e-08;0.8999999999999999;0.0;3.90000005;44.281093895374774;2.449648623390307
39049;39800;BERSAILLIN;1401.0;0.4;1.0;;;;;;0.0;0.0;0.0;0.0;1.0;46.85717945177242;5.595334225371876
17336;17810;SAINT_GEORGES_DES_COTEAUX;1920.0;2.5;1.0;;;;;;0.0;0.0;0.0;0.0;1.0;45.770362462519884;-0.7011516040645931
08095;08430;CHAGNY;1340.0;0.2;1.0;;;;;;0.0;0.0;0.0;0.0;1.0;49.57202924753153;4.699714018332958
11043;11800;BOUILHONNAC;614.0;0.2;1.0;;;;;;0.0;0.0;0.0;0.0;1.0;43.23234562297156;2.444108594167487
51324;51230;LINTHES;934.0;0.1;1.0;;;;;;0.0;0.0;0.0;0.0;1.0;48.7336444726537;3.856051697597991
14158;14370;CHICHEBOVILLE;747.0;0.5;1.0;;;;;;0.0;0.0;0.0;0.0;1.0;49.10513430144924;-0.219931014457618
60637;60890;THURY_EN_VALOIS;1149.0;0.5;1.0;;;;;;0.0;0.0;0.0;0.0;1.0;49.151683908201456;3.028760696065136
91495;91410;PLESSIS_SAINT_BENOIST;921.0;0.3;1.0;;;;;;0.0;0.0;0.0;0.0;1.0;48.44519941249592;2.003049952401073
80487;80240;LONGAVESNES;407.0;0.1;1.0;;;;;;0.0;0.0;0.0;0.0;1.0;49.971796954971076;3.06172648770494
08385;08090;SAINT_LAURENT;434.0;1.2;1.0;;;;;;0.0;0.0;0.0;0.0;1.0;49.75913896295888;4.776074325005419
36084;36230;GOURNAY;2054.0;0.3;1.0;10009164.0;INDRE;CENTRE;;;0.0;5e-08;0.0;0.0;1.00000005;46.59638080860217;1.73496195111701
65351;65100;OUSTE;242.0;0.0;1.0;;;;;;0.0;0.0;0.0;0.0;1.0;43.04648556514939;-0.014980146546270001
59489;59283;RAIMBEAUCOURT;1110.0;4.2;2.0;;;;;;0.0;0.0;0.0;0.0;2.0;50.436355007796195;3.102773526284212
86205;86200;RANTON;604.0;0.2;1.0;;;;;;0.0;0.0;0.0;0.0;1.0;46.99891975227471;-0.032722498262072006
11314;11220;RIEUX_EN_VAL;733.0;0.1;1.0;;;;;;0.0;0.0;0.0;0.0;1.0;43.07850295351932;2.5406870173867393
47026;47700;BEAUZIAC;1547.0;0.3;1.0;;;;;;0.0;0.0;0.0;0.0;1.0;44.313637681580026;0.032553137751778004
67426;67220;SAINT_MARTIN;413.0;0.3;3.0;;;;;;0.0;0.0;0.0;0.0;3.0;48.34981441623133;7.2857465352397615
57597;57780;ROSSELANGE;530.0;2.9;2.0;6208342.0;MOSELLE;GRAND-EST;;;0.0;5e-08;0.0;9e-06;2.00000905;49.26670901690067;6.061051806207826
70580;70130;VY_LE_FERROUX;574.0;0.2;1.0;;;;;;0.0;0.0;0.0;0.0;1.0;47.58762864522365;5.967244045674352
51206;51330;DAMPIERRE_LE_CHATEAU;1113.0;0.1;1.0;;;;;;0.0;0.0;0.0;0.0;1.0;49.0075580233383;4.802178899418326
25200;25870;DEVECEY;375.0;1.4;2.0;;;;;;0.0;0.0;0.0;0.0;2.0;47.3240979046476;6.017355482006212
77374;77135;PONTCARRE;960.0;2.0;1.0;;;;;;0.0;0.0;0.0;0.0;1.0;48.796292771001035;2.707443665030603
48103;48100;MONTRODAT;2059.0;1.2;3.0;;;;;;0.0;0.0;0.0;0.0;3.0;44.557497281186826;3.329498887033467
32133;32250;FOURCES;2371.0;0.3;1.0;;;;;;0.0;0.0;0.0;0.0;1.0;43.995190546125585;0.22896910664459502
89096;89250;CHEMILLY_SUR_YONNE;573.0;0.9;1.0;;;;;;0.0;0.0;0.0;0.0;1.0;47.89670762008146;3.557521694541668
61392;61470;SAINT_GERMAIN_D'AUNAY;858.0;0.2;1.0;;;;;;0.0;0.0;0.0;0.0;1.0;48.9290248326626;0.38161435111283903
01254;01250;MONTAGNAT;1384.0;1.6;1.0;;;;;;0.0;0.0;0.0;0.0;1.0;46.168696912336884;5.279621079381186
13048;13490;JOUQUES;8026.0;4.1;1.0;;;;;;0.0;0.0;0.0;0.0;1.0;43.63341378274627;5.656757963282385
32402;32190;SAINT_PAUL_DE_BAISE;1015.0;0.1;1.0;;;;;;0.0;0.0;0.0;0.0;1.0;43.7805362746629;0.372419299588639
95658;95450;VIGNY;681.0;1.1;1.0;;;;;;0.0;0.0;0.0;0.0;1.0;49.08016555696095;1.9299232368245711
02512;02810;MONTIGNY_L'ALLIER;1038.0;0.3;1.0;;;;;;0.0;0.0;0.0;0.0;1.0;49.12214184567024;3.107443728154571
33316;33790;PELLEGRUE;3806.0;1.0;1.0;;;;;;0.0;0.0;0.0;0.0;1.0;44.73822009756616;0.09525608665668801
79118;79450;FENERY;1275.0;0.3;3.0;;;;;;0.0;0.0;0.0;0.0;3.0;46.68491558655194;-0.36487972158568505
11068;11700;CAPENDU;1596.0;1.6;1.0;;;;;;0.0;0.0;0.0;0.0;1.0;43.18361022467123;2.55383504749661
35326;35490;SENS_DE_BRETAGNE;3112.0;2.5;3.0;;;;;;0.0;0.0;0.0;0.0;3.0;48.33673157340223;-1.553927176148786
95181;95650;COURCELLES_SUR_VIOSNE;364.0;0.3;1.0;;;;;;0.0;0.0;0.0;0.0;1.0;49.07302573796255;1.996301780216629
71427;71460;SAINT_HURUGE;403.0;0.1;3.0;;;;;;0.0;0.0;0.0;0.0;3.0;46.57872095385194;4.574767602711679
10095;10700;LE_CHENE;2103.0;0.3;1.0;;;;;;0.0;0.0;0.0;0.0;1.0;48.56285650369419;4.175895440051948
40140;40240;LAGRANGE;2127.0;0.2;1.0;;;;;;0.0;0.0;0.0;0.0;1.0;43.966377762636526;-0.08097756465347501
21699;21130;VILLERS_LES_POTS;1038.0;1.0;1.0;;;;;;0.0;0.0;0.0;0.0;1.0;47.210228676533184;5.347343914454294
80410;80400;HAM;978.0;5.1;1.0;5102295.0;SOMME;HAUTS-DE-FRANCE;;;0.0;5e-08;2.4000000000000004;0.0;3.4000000500000005;49.75347126215042;3.074006764170031
38317;38800;LE_PONT_DE_CLAIX;569.0;11.4;1.0;10400553.0;ISERE;AUVERGNE-RHONE-ALPES;;;0.0;5e-08;1.7999999999999998;0.0;2.8000000499999995;45.125912748662536;5.701935931881514
74137;74570;GROISY;2132.0;3.0;1.0;6113838.0;HAUTE-SAVOIE;AUVERGNE-RHONE-ALPES;;;0.0;5e-08;0.0;0.0;1.00000005;46.01763331278084;6.174965041742979
33114;33620;CAVIGNAC;670.0;1.6;1.0;;;;;;0.0;0.0;0.0;0.0;1.0;45.09640142702917;-0.38191035806148704
64007;64400;AGNOS;917.0;0.9;1.0;;;;;;0.0;0.0;0.0;0.0;1.0;43.15392246009266;-0.629327958939883
02098;02400;BONNEIL;213.0;0.4;1.0;;;;;;0.0;0.0;0.0;0.0;1.0;49.00824198171979;3.345947846802566
36205;36260;SAINT_PIERRE_DE_JARDS;1826.0;0.1;1.0;;;;;;0.0;0.0;0.0;0.0;1.0;47.10195783206863;1.9696566257812882
31563;31340;VACQUIERS;1962.0;1.3;1.0;6805029.0;HAUTE-GARONNE;OCCITANIE;;;0.0;5e-08;1.5;0.0;2.5000000499999997;43.79083809323968;1.483685734422558
71365;71290;RANCY;578.0;0.6000000000000001;1.0;;;;;;0.0;0.0;0.0;0.0;1.0;46.60051311652627;5.083074945843796
57211;57280;FEVES;482.0;0.9;2.0;;;;;;0.0;0.0;0.0;0.0;2.0;49.189181406543504;6.106927355747418
22040;22970;COADOUT;986.0;0.5;3.0;;;;;;0.0;0.0;0.0;0.0;3.0;48.51517744252563;-3.178903314711072
84115;84330;SAINT_PIERRE_DE_VASSOLS;499.0;0.5;1.0;;;;;;0.0;0.0;0.0;0.0;1.0;44.09490730266976;5.144364017236078
22020;22250;BROONS;3570.0;2.9;3.0;5520298.0;COTES-D'ARMOR;BRETAGNE;;;0.0;5e-08;0.0;0.0;3.00000005;48.31081348821055;-2.241338072659961
12119;12210;LAGUIOLE;6388.0;1.3;3.0;6811344.0;AVEYRON;OCCITANIE;;;0.0;5e-08;0.0;0.0;3.00000005;44.694249305400696;2.867145799833378
14467;14700;NORON_L'ABBAYE;759.0;0.3;3.0;;;;;;0.0;0.0;0.0;0.0;3.0;48.896039800161155;-0.247654065672639
57252;57220;GOMELANGE;947.0;0.5;1.0;;;;;;0.0;0.0;0.0;0.0;1.0;49.23850765989916;6.461402688127201
02529;02270;MORTIERS;650.0;0.2;1.0;;;;;;0.0;0.0;0.0;0.0;1.0;49.69345082639115;3.664118415929231
71545;71520;TRAMAYES;1863.0;1.0;3.0;;;;;;0.0;0.0;0.0;0.0;3.0;46.30565280478149;4.603681101607985
10198;10320;LIREY;482.0;0.1;1.0;;;;;;0.0;0.0;0.0;0.0;1.0;48.16050142956071;4.038857628117278
88047;88270;BEGNECOURT;454.0;0.2;1.0;;;;;;0.0;0.0;0.0;0.0;1.0;48.20991807495091;6.164609651453482
54142;54740;CRANTENOY;522.0;0.1;1.0;;;;;;0.0;0.0;0.0;0.0;1.0;48.467133580367474;6.232003022775687
62134;62650;BIMONT;683.0;0.1;1.0;7003529.0;PAS-DE-CALAIS;HAUTS-DE-FRANCE;Air;Méthane (CH4);341000.0;0.0341;0.6000000000000001;0.0;1.6341;50.54097829204507;1.9096601114086411
61094;61100;LA_CHAPELLE_AU_MOINE;551.0;0.6000000000000001;3.0;5302459.0;ORNE;NORMANDIE;;;0.0;5e-08;0.8999999999999999;1.8e-05;3.90001805;48.70300836222817;-0.5920375942849531
81063;81150;CASTELNAU_DE_LEVIS;2138.0;1.5;1.0;;;;;;0.0;0.0;0.0;0.0;1.0;43.94371693990958;2.071100415976419
64033;64190;ARAUX;543.0;0.1;1.0;;;;;;0.0;0.0;0.0;0.0;1.0;43.34099457043953;-0.8194201579640491
62877;62760;WARLINCOURT_LES_PAS;520.0;0.2;1.0;;;;;;0.0;0.0;0.0;0.0;1.0;50.18418073037837;2.50628872794737
76681;76300;SOTTEVILLE_LES_ROUEN;741.0;29.3;1.0;5802920.0;SEINE-MARITIME;NORMANDIE;;;0.0;5e-08;0.6000000000000001;0.150042;1.7500420500000002;49.41048874444711;1.095099465312252
72227;72600;PANON;236.0;0.0;1.0;;;;;;0.0;0.0;0.0;0.0;1.0;48.33911729048071;0.300272585868716
67309;67450;MUNDOLSHEIM;431.0;5.0;1.0;;;;;;0.0;0.0;0.0;0.0;1.0;48.63950282414696;7.714959009772219
16411;16140;VILLEJESUS;1703.0;0.6000000000000001;1.0;;;;;;0.0;0.0;0.0;0.0;1.0;45.90727306429495;0.032522713358776004
54532;54385;TREMBLECOURT;603.0;0.2;1.0;;;;;;0.0;0.0;0.0;0.0;1.0;48.80289308708252;5.945558291477982
25102;25470;BURNEVILLERS;672.0;0.0;1.0;;;;;;0.0;0.0;0.0;0.0;1.0;47.33230073466319;7.020710007121399
77259;77230;LONGPERRIER;465.0;2.4;1.0;;;;;;0.0;0.0;0.0;0.0;1.0;49.05096953594006;2.655424710260998
86149;86330;MARTAIZE;1967.0;0.4;1.0;;;;;;0.0;0.0;0.0;0.0;1.0;46.919951146782964;0.050110360393259
63014;63170;AUBIERE;780.0;9.8;3.0;5601563.0;PUY-DE-DOME;AUVERGNE-RHONE-ALPES;;;0.0;5e-08;1.2000000000000002;6e-06;4.20000605;45.75105583853478;3.12613411899644
85243;85470;BREM_SUR_MER;1616.0;2.6;3.0;6302842.0;VENDEE;PAYS-DE-LA-LOIRE;;;0.0;5e-08;0.0;0.0;3.00000005;46.611856698859576;-1.810039179228855
61151;61270;ECORCEI;958.0;0.4;1.0;;;;;;0.0;0.0;0.0;0.0;1.0;48.71926578850594;0.5756584782611951
04008;04240;ANNOT;2986.0;1.0;1.0;;;;;;0.0;0.0;0.0;0.0;1.0;43.96200097038975;6.663958115655728
27388;27680;MARAIS_VERNIER;2629.0;0.5;1.0;;;;;;0.0;0.0;0.0;0.0;1.0;49.4380276828191;0.464318330945644
38300;38260;PENOL;1210.0;0.3;1.0;10400549.0;ISERE;AUVERGNE-RHONE-ALPES;Air;Méthane (CH4);290000.0;0.028999999999999998;0.0;0.0;1.029;45.37325112147674;5.18172674952702
02397;02480;JUSSY;1344.0;1.3;1.0;5100397.0;AISNE;HAUTS-DE-FRANCE;;;0.0;5e-08;1.7999999999999998;0.0;2.8000000499999995;49.717205093145715;3.236117327772302
39190;39700;DAMPIERRE;711.0;1.2;2.0;;;;;;0.0;0.0;0.0;0.0;2.0;47.16505093046545;5.742289988020917
27299;27930;GRAVIGNY;1005.0;4.1;1.0;5804281.0;EURE;NORMANDIE;;;0.0;5e-08;0.30000000000000004;0.0;1.30000005;49.052226391190345;1.16057059771612
62650;62118;PELVES;665.0;0.7000000000000001;1.0;;;;;;0.0;0.0;0.0;0.0;1.0;50.287212147727445;2.917979316038123
09005;09320;ALEU;1410.0;0.2;1.0;;;;;;0.0;0.0;0.0;0.0;1.0;42.89374209796518;1.267493934850316
39558;39570;VEVY;977.0;0.2;1.0;;;;;;0.0;0.0;0.0;0.0;1.0;46.666446595478455;5.663501336836659
54324;54290;LOREY;510.0;0.1;1.0;;;;;;0.0;0.0;0.0;0.0;1.0;48.49736735441127;6.314796788745757
59299;59510;HEM;967.0;17.2;1.0;;;;;;0.0;0.0;0.0;0.0;1.0;50.654804945586044;3.193056326079533
21661;21370;VELARS_SUR_OUCHE;1211.0;1.7000000000000002;1.0;;;;;;0.0;0.0;0.0;0.0;1.0;47.31863993435648;4.909839458712446
63374;63600;SAINT_MARTIN_DES_OLMES;1700.0;0.3;3.0;;;;;;0.0;0.0;0.0;0.0;3.0;45.527015674821996;3.8041916458321143
55536;55270;VAUQUOIS;816.0;0.0;1.0;;;;;;0.0;0.0;0.0;0.0;1.0;49.199378983043815;5.083255003479645
43163;43220;RIOTORD;5189.0;1.2;3.0;;;;;;0.0;0.0;0.0;0.0;3.0;45.23492777026328;4.4223982550643495
14595;14100;SAINT_JEAN_DE_LIVET;352.0;0.2;1.0;;;;;;0.0;0.0;0.0;0.0;1.0;49.09338467393376;0.242347762492913
36061;36140;CROZON_SUR_VAUVRE;2784.0;0.4;3.0;;;;;;0.0;0.0;0.0;0.0;3.0;46.48128811399539;1.881948073476206
78444;78980;NEAUPHLETTE;977.0;0.9;1.0;;;;;;0.0;0.0;0.0;0.0;1.0;48.93534763502307;1.5422711327604062
02720;02150;SISSONNE;5364.0;2.1;1.0;9000279.0;AISNE;HAUTS-DE-FRANCE;;;0.0;5e-08;1.5;0.0;2.5000000499999997;49.563964845083554;3.920321395788963
90099;90300;VALDOIE;462.0;5.1;3.0;;;;;;0.0;0.0;0.0;0.0;3.0;47.67123891916303;6.848608215836198
03289;03220;TRETEAU;3138.0;0.6000000000000001;1.0;;;;;;0.0;0.0;0.0;0.0;1.0;46.367710442188184;3.51996970707089
38429;38650;SAINT_MICHEL_LES_PORTES;2132.0;0.2;1.0;;;;;;0.0;0.0;0.0;0.0;1.0;44.86504064515261;5.590148718625515
03179;03150;MONTAIGU_LE_BLIN;1300.0;0.3;1.0;;;;;;0.0;0.0;0.0;0.0;1.0;46.29074372549837;3.516238393782907
89416;89520;THURY;2331.0;0.5;1.0;;;;;;0.0;0.0;0.0;0.0;1.0;47.588934089789156;3.300895499554129
69162;69430;QUINCIE_EN_BEAUJOLAIS;2201.0;1.2;3.0;;;;;;0.0;0.0;0.0;0.0;3.0;46.113273789824746;4.608013741163367
42107;42560;GUMIERES;1604.0;0.3;3.0;;;;;;0.0;0.0;0.0;0.0;3.0;45.527323867486245;3.977087380073773
55326;55500;MAULAN;413.0;0.1;1.0;;;;;;0.0;0.0;0.0;0.0;1.0;48.66668647397564;5.252654585323673
34315;34230;USCLAS_D'HERAULT;279.0;0.3;1.0;;;;;;0.0;0.0;0.0;0.0;1.0;43.52180191071146;3.4673127326433733
82052;82700;ESCATALENS;1801.0;1.1;1.0;;;;;;0.0;0.0;0.0;0.0;1.0;43.98176946158891;1.193680024937057
23152;23130;PIERREFITTE;644.0;0.1;3.0;;;;;;0.0;0.0;0.0;0.0;3.0;46.152086747550996;2.232786294246017
67022;67220;BASSEMBERG;188.0;0.3;3.0;;;;;;0.0;0.0;0.0;0.0;3.0;48.33594663258843;7.277965583185437
06009;06420;BAIROLS;1503.0;0.1;1.0;;;;;;0.0;0.0;0.0;0.0;1.0;43.98705102069001;7.119694730583489
22343;22560;TREBEURDEN;1386.0;3.7;3.0;;;;;;0.0;0.0;0.0;0.0;3.0;48.770777594409594;-3.557692386319655
51269;51290;GIFFAUMONT_CHAMPAUBERT;2813.0;0.3;1.0;;;;;;0.0;0.0;0.0;0.0;1.0;48.55986537584983;4.7481522627726775
59280;59151;HAMEL;359.0;0.8;1.0;;;;;;0.0;0.0;0.0;0.0;1.0;50.2819824196656;3.068505910611259
79270;79400;SAINT_MAIXENT_L'ECOLE;519.0;7.5;2.0;9000324.0;DEUX-SEVRES;NOUVELLE-AQUITAINE;;;0.0;5e-08;1.7999999999999998;0.0;3.8000000499999995;46.412831902661715;-0.21023826515583002
59517;59258;LES_RUES_DES_VIGNES;1766.0;0.7000000000000001;1.0;7000610.0;NORD;HAUTS-DE-FRANCE;;;0.0;5e-08;2.4000000000000004;0.0;3.4000000500000005;50.07583416258766;3.233490408657578
39278;39130;LARGILLAY_MARSONNAY;753.0;0.2;1.0;;;;;;0.0;0.0;0.0;0.0;1.0;46.55601980277148;5.665584009393106
29205;29270;PLOUNEVEZEL;2439.0;1.2;1.0;52902949.0;FINISTERE;BRETAGNE;Air;Ammoniac (NH3);16600.0;0.00166;0.0;0.0;1.00166;48.31242442663824;-3.574511577960232
76240;76400;EPREVILLE;649.0;1.0;1.0;;;;;;0.0;0.0;0.0;0.0;1.0;49.705164413633675;0.367872929537488
26324;26130;SAINT_PAUL_TROIS_CHATEAUX;2207.0;8.6;2.0;6102715.0;DROME;AUVERGNE-RHONE-ALPES;;;0.0;5e-08;3.0;0.0;5.000000050000001;44.34828084782697;4.757449343827555
79006;79190;LES_ALLEUDS;924.0;0.3;1.0;;;;;;0.0;0.0;0.0;0.0;1.0;46.15945773711178;-0.013910113453018002
40114;40990;GOURBERA;2774.0;0.3;1.0;;;;;;0.0;0.0;0.0;0.0;1.0;43.80779054688182;-1.047839923906569
59466;59710;PONT_A_MARCQ;226.0;2.6;1.0;7001065.0;NORD;HAUTS-DE-FRANCE;;;0.0;5e-08;1.2000000000000002;0.0;2.20000005;50.52132248024737;3.115359647385539
52428;52700;ROCHEFORT_SUR_LA_COTE;514.0;0.1;1.0;;;;;;0.0;0.0;0.0;0.0;1.0;48.2262865849926;5.211527945047963
36079;36110;FRANCILLON;1030.0;0.1;1.0;;;;;;0.0;0.0;0.0;0.0;1.0;46.946445046067915;1.5577681276420061
92004;92600;ASNIERES_SUR_SEINE;482.0;81.6;1.0;6517183.0;HAUTS-DE-SEINE;ILE-DE-FRANCE;;;0.0;5e-08;1.5;0.0;2.5000000499999997;48.91535301225585;2.288038466299997
87131;87720;SAILLAT_SUR_VIENNE;636.0;0.8;3.0;6000314.0;HAUTE-VIENNE;NOUVELLE-AQUITAINE;Eau (direct);Demande chimique en oxygène (DCO);169000.0;0.01014;3.0;0.0;6.01014;45.870489944602646;0.8340668422631891
01364;01560;SAINT_JEAN_SUR_REYSSOUZE;2744.0;0.7000000000000001;1.0;;;;;;0.0;0.0;0.0;0.0;1.0;46.39724798540753;5.062977637772653
63024;63690;AVEZE;2209.0;0.2;3.0;;;;;;0.0;0.0;0.0;0.0;3.0;45.597095198459996;2.606150547187717
50337;50240;MONTANEL;1551.0;0.4;3.0;;;;;;0.0;0.0;0.0;0.0;3.0;48.48155831803753;-1.4089071898855061
74106;74550;DRAILLANT;1037.0;0.7000000000000001;1.0;;;;;;0.0;0.0;0.0;0.0;1.0;46.29572455548531;6.472998298497007
03010;03190;AUDES;2818.0;0.5;1.0;;;;;;0.0;0.0;0.0;0.0;1.0;46.46077073994843;2.559047862891146
12030;12300;BOUILLAC;817.0;0.4;3.0;;;;;;0.0;0.0;0.0;0.0;3.0;44.573439045882424;2.17431868784721
73029;73000;BARBERAZ;366.0;4.6;1.0;;;;;;0.0;0.0;0.0;0.0;1.0;45.55205968719863;5.939255563293049
59094;59630;BOURBOURG;3864.0;6.8;1.0;7004287.0;NORD;HAUTS-DE-FRANCE;;;0.0;5e-08;1.2000000000000002;9e-06;2.2000090500000002;50.942400170238884;2.203554484357381
76081;76370;BERNEVAL_LE_GRAND;559.0;1.3;1.0;;;;;;0.0;0.0;0.0;0.0;1.0;49.95467459340521;1.188925792402582
04183;04170;SAINT_JULIEN_DU_VERDON;750.0;0.1;1.0;;;;;;0.0;0.0;0.0;0.0;1.0;43.90976261157559;6.546059004506026
41051;41400;CHISSAY_EN_TOURAINE;1836.0;1.1;1.0;;;;;;0.0;0.0;0.0;0.0;1.0;47.35350435613782;1.135797617909959
49261;49350;LES_ROSIERS_SUR_LOIRE;2607.0;2.3;1.0;;;;;;0.0;0.0;0.0;0.0;1.0;47.37411515198496;-0.22256281496343602
39413;39370;LA_PESSE;2427.0;0.4;1.0;;;;;;0.0;0.0;0.0;0.0;1.0;46.28646854095059;5.85238812672587
59465;59360;POMMEREUIL;643.0;0.8;1.0;;;;;;0.0;0.0;0.0;0.0;1.0;50.116969331906226;3.586937509166011
58309;58370;VILLAPOURCON;5090.0;0.5;3.0;;;;;;0.0;0.0;0.0;0.0;3.0;46.938059532315336;3.956527097918907
24512;24200;SAINT_VINCENT_LE_PALUEL;707.0;0.3;1.0;;;;;;0.0;0.0;0.0;0.0;1.0;44.88336677076529;1.275424673940692
55162;55240;DOMREMY_LA_CANNE;305.0;0.0;1.0;;;;;;0.0;0.0;0.0;0.0;1.0;49.297644364105004;5.69310622181858
67413;67290;ROSTEIG;774.0;0.6000000000000001;1.0;;;;;;0.0;0.0;0.0;0.0;1.0;48.93192687667007;7.336082260753052
24084;24170;CARVES;1040.0;0.1;2.0;;;;;;0.0;0.0;0.0;0.0;2.0;44.78549082882817;1.060576998037012
22119;22420;LANVELLEC;1886.0;0.5;3.0;;;;;;0.0;0.0;0.0;0.0;3.0;48.60727697418181;-3.527950868208791
65385;65250;SAINT_ARROMAN;435.0;0.1;1.0;;;;;;0.0;0.0;0.0;0.0;1.0;43.04479905559645;0.403215538636123
30257;30320;SAINT_GERVASY;711.0;1.7000000000000002;1.0;;;;;;0.0;0.0;0.0;0.0;1.0;43.87452308107582;4.469609190435758
31335;31110;MAYREGNE;522.0;0.0;1.0;;;;;;0.0;0.0;0.0;0.0;1.0;42.84815212326056;0.5400390429309181
25216;25150;ECURCEY;751.0;0.3;1.0;;;;;;0.0;0.0;0.0;0.0;1.0;47.403111915658855;6.805027464896605
79208;79200;LA_PEYRATTE;4757.0;1.1;3.0;;;;;;0.0;0.0;0.0;0.0;3.0;46.66456725501101;-0.15871280761564302
88009;88650;ANOULD;2449.0;3.3;3.0;;;;;;0.0;0.0;0.0;0.0;3.0;48.1847716702534;6.94070062941801
19044;19120;LA_CHAPELLE_AUX_SAINTS;493.0;0.2;1.0;;;;;;0.0;0.0;0.0;0.0;1.0;44.98311816125727;1.7190895155821742
15121;15110;MAURINES;1457.0;0.1;3.0;;;;;;0.0;0.0;0.0;0.0;3.0;44.87005648903223;3.082089712640166
02289;02570;ESSISES;753.0;0.4;1.0;;;;;;0.0;0.0;0.0;0.0;1.0;48.966690484317276;3.4139649170521498
29010;29400;BODILIS;2008.0;1.6;3.0;;;;;;0.0;0.0;0.0;0.0;3.0;48.515397883155764;-4.1206309601859274
12044;12360;CAMARES;4194.0;1.0;3.0;6811345.0;AVEYRON;OCCITANIE;;;0.0;5e-08;0.0;0.0;3.00000005;43.81836031776183;2.8852315266511512
47316;47400;VARES;1683.0;0.7000000000000001;1.0;5202151.0;LOT-ET-GARONNE;NOUVELLE-AQUITAINE;Air;Ammoniac (NH3);14700.0;0.00147;0.0;0.0;1.00147;44.43255017565426;0.35607470131241603
01040;01340;BEREZIAT;1127.0;0.4;1.0;;;;;;0.0;0.0;0.0;0.0;1.0;46.367437101212126;5.040216559646423
15152;15230;PIERREFORT;2459.0;0.9;3.0;;;;;;0.0;0.0;0.0;0.0;3.0;44.92884182311967;2.8381960169672613
95633;95500;VAUDHERLAND;9.0;0.1;1.0;;;;;;0.0;0.0;0.0;0.0;1.0;49.00049672952898;2.486429562240601
67180;67500;HAGUENAU;18358.0;34.6;1.0;6701892.0;BAS-RHIN;GRAND-EST;;;0.0;5e-08;1.2000000000000002;0.0;2.20000005;48.841704769519815;7.830104049684295
47037;47210;BOURNEL;1459.0;0.3;1.0;;;;;;0.0;0.0;0.0;0.0;1.0;44.63195273237698;0.6769586940955431
22307;22940;SAINT_JULIEN;561.0;2.0;3.0;;;;;;0.0;0.0;0.0;0.0;3.0;48.448099056151;-2.8168560465632373
71485;71390;SAINT_VALLERIN;678.0;0.3;1.0;;;;;;0.0;0.0;0.0;0.0;1.0;46.68470322713338;4.669337896862443
46212;46330;ORNIAC;1697.0;0.1;1.0;;;;;;0.0;0.0;0.0;0.0;1.0;44.54293060506448;1.677474476184441
62332;62173;FICHEUX;584.0;0.5;1.0;;;;;;0.0;0.0;0.0;0.0;1.0;50.225857146547895;2.7462356066807763
32225;32730;MALABAT;550.0;0.1;1.0;;;;;;0.0;0.0;0.0;0.0;1.0;43.431964924037125;0.19281822283955902
02097;02350;BONCOURT;1334.0;0.2;1.0;;;;;;0.0;0.0;0.0;0.0;1.0;49.62648619983969;3.956447718995609
57244;57820;GARREBOURG;829.0;0.5;1.0;;;;;;0.0;0.0;0.0;0.0;1.0;48.70835155639146;7.23712179882487
54053;54370;BAUZEMONT;637.0;0.2;1.0;;;;;;0.0;0.0;0.0;0.0;1.0;48.6709985623935;6.531008289349136
43046;43770;CHADRAC;248.0;2.7;3.0;5600197.0;HAUTE-LOIRE;AUVERGNE-RHONE-ALPES;;;0.0;5e-08;5.699999999999999;0.0;8.70000005;45.06101948060319;3.901053217482933
16356;16460;SAINT_SULPICE_DE_RUFFEC;240.0;0.0;1.0;;;;;;0.0;0.0;0.0;0.0;1.0;45.937257085167786;0.31894854078635304
38062;38530;LA_BUISSIERE;753.0;0.7000000000000001;1.0;;;;;;0.0;0.0;0.0;0.0;1.0;45.4086712829047;5.985727714484334
60629;60380;THERINES;974.0;0.2;1.0;;;;;;0.0;0.0;0.0;0.0;1.0;49.60343584452615;1.893745732597728
57086;57930;BELLES_FORETS;2664.0;0.3;1.0;;;;;;0.0;0.0;0.0;0.0;1.0;48.808124194285334;6.900145746727997
62539;62130;MAISNIL;521.0;0.3;1.0;;;;;;0.0;0.0;0.0;0.0;1.0;50.346716103044166;2.357723619102868
01454;01300;VIRIGNIN;783.0;0.8;1.0;;;;;;0.0;0.0;0.0;0.0;1.0;45.72673877620477;5.712823309357108
74037;74420;BOEGE;1598.0;1.6;1.0;;;;;;0.0;0.0;0.0;0.0;1.0;46.21887686329549;6.385305522612601
39409;39290;PEINTRE;651.0;0.1;1.0;;;;;;0.0;0.0;0.0;0.0;1.0;47.19800039706032;5.472971790750389
44001;44170;ABBARETZ;6204.0;1.9;3.0;;;;;;0.0;0.0;0.0;0.0;3.0;47.55603848333499;-1.4932726209368021
27050;27170;BEAUMONTEL;1169.0;0.7000000000000001;1.0;;;;;;0.0;0.0;0.0;0.0;1.0;49.095615172487854;0.7808147035760341
53107;53120;GORRON;1485.0;2.8;3.0;6301158.0;MAYENNE;PAYS-DE-LA-LOIRE;;;0.0;5e-08;3.3000000000000003;0.0;6.30000005;48.42193974052245;-0.8016203215995821
34013;34800;ASPIRAN;1617.0;1.4;1.0;6601566.0;HERAULT;OCCITANIE;;;0.0;5e-08;0.0;0.0;1.00000005;43.56722330994009;3.448161193899035
34114;34150;GIGNAC;2987.0;5.3;1.0;6604098.0;HERAULT;OCCITANIE;;;0.0;5e-08;0.0;0.0;1.00000005;43.63939372157108;3.573846288683119
50642;50250;VINDEFONTAINE;829.0;0.3;1.0;;;;;;0.0;0.0;0.0;0.0;1.0;49.341393013870245;-1.42827947486079
67021;67140;BARR;2119.0;6.8;3.0;;;;;;0.0;0.0;0.0;0.0;3.0;48.41495123557596;7.399304387819659
84133;84240;LA_TOUR_D'AIGUES;4141.0;3.9;2.0;;;;;;0.0;0.0;0.0;0.0;2.0;43.721483518722835;5.567346640630744
25142;25240;CHAUX_NEUVE;2821.0;0.3;1.0;;;;;;0.0;0.0;0.0;0.0;1.0;46.6555343865102;6.152499718086914
62145;62156;BOIRY_NOTRE_DAME;622.0;0.5;1.0;;;;;;0.0;0.0;0.0;0.0;1.0;50.27392964307715;2.94252395945675
39137;39240;CHEMILLA;188.0;0.1;1.0;;;;;;0.0;0.0;0.0;0.0;1.0;46.35079357994389;5.558382233541565
78474;78910;ORVILLIERS;595.0;0.7000000000000001;1.0;;;;;;0.0;0.0;0.0;0.0;1.0;48.85481040119983;1.6425210019461751
76080;76640;BERMONVILLE;748.0;0.5;1.0;;;;;;0.0;0.0;0.0;0.0;1.0;49.641467657742496;0.6392214570481001
61111;61250;COLOMBIERS;1220.0;0.3;3.0;;;;;;0.0;0.0;0.0;0.0;3.0;48.47575169671936;0.050968474964187
65061;65140;BARBACHEN;305.0;0.1;1.0;;;;;;0.0;0.0;0.0;0.0;1.0;43.42912566806585;0.126128439430291
57412;57050;LONGEVILLE_LES_METZ;268.0;3.9;1.0;;;;;;0.0;0.0;0.0;0.0;1.0;49.11488671032597;6.146551281718035
51610;51800;VERRIERES;567.0;0.4;1.0;;;;;;0.0;0.0;0.0;0.0;1.0;49.06127773195477;4.901086770360458
56045;56230;LE_COURS;1568.0;0.6000000000000001;3.0;;;;;;0.0;0.0;0.0;0.0;3.0;47.74950710477111;-2.508481061042133
34335;34600;VILLEMAGNE_L'ARGENTIERE;797.0;0.4;2.0;;;;;;0.0;0.0;0.0;0.0;2.0;43.61890671525018;3.121432409757496
95543;95510;SAINT_CYR_EN_ARTHIES;386.0;0.2;1.0;;;;;;0.0;0.0;0.0;0.0;1.0;49.059130605008015;1.741957904736447
69257;69460;VAUX_EN_BEAUJOLAIS;1771.0;1.0;3.0;;;;;;0.0;0.0;0.0;0.0;3.0;46.04608016968313;4.576977500679151
40320;40090;UCHACQ_ET_PARENTIS;3858.0;0.6000000000000001;1.0;;;;;;0.0;0.0;0.0;0.0;1.0;43.94585100703183;-0.548232922366367
61150;61370;ECHAUFFOUR;3327.0;0.7000000000000001;1.0;;;;;;0.0;0.0;0.0;0.0;1.0;48.73225064552153;0.39509773758674105
71423;71350;SAINT_GERVAIS_EN_VALLIERE;1643.0;0.4;1.0;;;;;;0.0;0.0;0.0;0.0;1.0;46.94527325602926;4.962409021540538
89221;89130;LEUGNY;1342.0;0.4;1.0;;;;;;0.0;0.0;0.0;0.0;1.0;47.68611996940084;3.374581685863973
14605;14710;SAINT_LAURENT_SUR_MER;396.0;0.2;1.0;;;;;;0.0;0.0;0.0;0.0;1.0;49.357704994604504;-0.8760121167289541
85154;85390;MOUILLERON_EN_PAREDS;2016.0;1.3;3.0;;;;;;0.0;0.0;0.0;0.0;3.0;46.66127006668677;-0.8467842010712281
05181;05480;VILLAR_D'ARENE;7797.0;0.3;1.0;;;;;;0.0;0.0;0.0;0.0;1.0;44.99972176500799;6.36428454593649
89359;89190;SAINT_MAURICE_AUX_RICHES_HOMMES;3320.0;0.5;1.0;;;;;;0.0;0.0;0.0;0.0;1.0;48.3293750856862;3.498594302561151
18288;18340;VORLY;1860.0;0.2;1.0;;;;;;0.0;0.0;0.0;0.0;1.0;46.9399216057018;2.473149132298256
09197;09110;MONTAILLOU;886.0;0.0;1.0;;;;;;0.0;0.0;0.0;0.0;1.0;42.78018875040071;1.9025566725854732
72295;72600;SAINT_LONGIS;1120.0;0.5;1.0;;;;;;0.0;0.0;0.0;0.0;1.0;48.35340548578027;0.33699332774365603
56173;56930;PLUMELIAU;6856.0;3.6;3.0;55602779.0;MORBIHAN;BRETAGNE;Air;Ammoniac (NH3);19400.0;0.0019399999999999999;0.0;0.0;3.00194;47.96504796177063;-2.9809539734379022
71251;71190;LAIZY;3123.0;0.6000000000000001;3.0;;;;;;0.0;0.0;0.0;0.0;3.0;46.910848448725325;4.183288083670337
65135;65130;CASTILLON;337.0;0.1;1.0;;;;;;0.0;0.0;0.0;0.0;1.0;43.09430182300848;0.22146561921841101
76365;76740;HOUDETOT;587.0;0.2;1.0;;;;;;0.0;0.0;0.0;0.0;1.0;49.81694004074504;0.8062450529369971
62788;62380;SENINGHEM;1533.0;0.6000000000000001;1.0;;;;;;0.0;0.0;0.0;0.0;1.0;50.698483613306195;2.0270263943904
40075;40260;CASTETS;9122.0;1.9;1.0;5209613.0;LANDES;NOUVELLE-AQUITAINE;;;0.0;5e-08;0.0;3.6e-05;1.00003605;43.874039659999696;-1.14528108058334
47163;47200;MAUVEZIN_SUR_GUPIE;1597.0;0.5;1.0;;;;;;0.0;0.0;0.0;0.0;1.0;44.56078159583276;0.175677075585418
15221;15130;SANSAC_DE_MARMIESSE;1429.0;1.3;3.0;;;;;;0.0;0.0;0.0;0.0;3.0;44.89022139853989;2.34319236957866
61103;61230;CHAUMONT;1955.0;0.2;1.0;;;;;;0.0;0.0;0.0;0.0;1.0;48.84450614510584;0.338218709549287
32289;32220;MONTPEZAT;1568.0;0.2;1.0;;;;;;0.0;0.0;0.0;0.0;1.0;43.388899855384196;0.977281314351605
72342;72400;SOUVIGNE_SUR_MEME;650.0;0.2;1.0;;;;;;0.0;0.0;0.0;0.0;1.0;48.217212060688695;0.648847952112053
